City_ID,City,Lat,Lng,Max Temp,Humidity,Cloudiness,Wind Speed,Country,Date
0,port-aux-francais,-49.35,70.2167,42.06,89,100,25.7,TF,05/06/2024
1,dakhla,23.6848,-15.958,71.62,73,89,26.46,EH,05/06/2024
2,grytviken,-54.2811,-36.5092,33.75,82,96,10.18,GS,05/06/2024
3,adamstown,-25.066,-130.1015,71.8,77,61,21.43,PN,05/06/2024
4,taybad,34.74,60.7756,78.44,23,45,4.45,IR,05/06/2024
5,yellowknife,62.456,-114.3525,57.42,57,20,9.22,CA,05/06/2024
6,papatowai,-46.5619,169.4708,46.29,76,94,11.99,NZ,05/06/2024
7,edinburgh of the seven seas,-37.0676,-12.3116,57.06,65,24,23.33,SH,05/06/2024
8,senanga,-16.1167,23.2667,74.8,32,3,1.07,ZM,05/06/2024
9,domoni,-12.2569,44.5319,80.06,83,62,6.96,KM,05/06/2024
10,cabedelo,-6.9811,-34.8339,86.67,79,92,14.16,BR,05/06/2024
11,susuman,62.7833,148.1667,26.98,86,77,1.01,RU,05/06/2024
12,taro,-8.3862,115.28,71.6,97,63,0.78,ID,05/06/2024
13,ushuaia,-54.8,-68.3,35.26,87,100,4.61,AR,05/06/2024
14,klyuchi,52.2667,79.1667,44.06,47,41,2.95,RU,05/06/2024
15,wendouree,-37.55,143.8333,48.47,85,35,1.99,AU,05/06/2024
16,blackmans bay,-43.0167,147.3167,45.52,89,36,4.94,AU,05/06/2024
17,lihue,21.9789,-159.3672,73.36,77,75,18.41,US,05/06/2024
18,bredasdorp,-34.5322,20.0403,61.83,69,0,1.7,ZA,05/06/2024
19,kapuskasing,49.4169,-82.4331,59.0,41,75,16.11,CA,05/06/2024
20,bikenibeu village,1.3673,173.1241,83.44,76,63,13.53,KI,05/06/2024
21,ta`u,-14.2336,-169.5144,83.79,82,100,12.86,AS,05/06/2024
22,ribeira grande,38.5167,-28.7,63.0,88,75,11.01,PT,05/06/2024
23,margaret river,-33.95,115.0667,55.36,90,0,8.16,AU,05/06/2024
24,isafjordur,66.0755,-23.124,42.84,58,75,5.75,IS,05/06/2024
25,ghardaia,32.4909,3.6735,92.55,8,0,8.05,DZ,05/06/2024
26,poso,-1.3959,120.7524,79.07,78,100,2.73,ID,05/06/2024
27,kodiak,57.79,-152.4072,42.31,70,100,4.61,US,05/06/2024
28,koksan,38.7819,126.6664,51.91,98,100,5.86,KP,05/06/2024
29,waitangi,-43.9535,-176.5597,49.82,92,87,3.0,NZ,05/06/2024
30,tofol,5.3248,163.0078,83.32,82,100,21.61,FM,05/06/2024
31,naze,28.3667,129.4833,68.92,94,78,6.82,JP,05/06/2024
32,saipan,15.1355,145.701,81.3,78,40,5.75,MP,05/06/2024
33,freetown,8.484,-13.2299,87.51,66,20,11.5,SL,05/06/2024
34,stanley,54.868,-1.6985,56.79,90,100,6.91,GB,05/06/2024
35,vorgashor,67.5833,63.95,-1.19,100,11,4.18,RU,05/06/2024
36,vanimo,-2.6741,141.3028,79.03,92,100,4.32,PG,05/06/2024
37,bilibino,68.0546,166.4372,18.66,95,68,0.47,RU,05/06/2024
38,kon tum,14.35,108.0,66.96,86,64,2.66,VN,05/06/2024
39,punta arenas,-53.15,-70.9167,41.11,81,75,2.3,CL,05/06/2024
40,iqaluit,63.7506,-68.5145,28.13,68,20,4.61,CA,05/06/2024
41,el hajeb,33.6879,-5.371,69.91,47,2,11.79,MA,05/06/2024
42,newman,37.3138,-121.0208,62.24,54,10,5.01,US,05/06/2024
43,geraldton,-28.7667,114.6,55.81,82,1,5.75,AU,05/06/2024
44,gudalur,9.6833,77.2667,76.32,92,98,5.28,IN,05/06/2024
45,colonia,50.9333,6.95,60.82,92,75,4.61,DE,05/06/2024
46,utrik,11.2278,169.8474,80.91,82,94,19.06,MH,05/06/2024
47,richards bay,-28.783,32.0377,71.08,82,2,7.52,ZA,05/06/2024
48,port elizabeth,-33.918,25.5701,67.32,97,40,3.44,ZA,05/06/2024
49,koch bihar,26.3167,89.4333,72.81,81,46,4.03,IN,05/06/2024
50,hithadhoo,-0.6,73.0833,84.4,78,100,7.27,MV,05/06/2024
51,albany,42.6001,-73.9662,68.27,78,99,1.99,US,05/06/2024
52,tinajo,29.0788,-13.7081,74.28,60,20,16.11,ES,05/06/2024
53,yung shue wan,22.2333,114.1167,79.68,82,97,0.96,HK,05/06/2024
54,brisas de zicatela,15.8369,-97.0419,86.52,70,0,11.5,MX,05/06/2024
55,illizi,26.4833,8.4667,94.8,19,73,16.15,DZ,05/06/2024
56,nar'yan-mar,67.6713,53.087,18.66,88,95,10.4,RU,05/06/2024
57,westport,41.1415,-73.3579,72.16,72,100,6.91,US,05/06/2024
58,jambi city,-1.6,103.6167,75.67,97,100,2.04,ID,05/06/2024
59,remire-montjoly,4.9167,-52.2667,87.84,74,100,14.97,GF,05/06/2024
60,kuusamo,65.9667,29.1833,33.84,55,75,9.22,FI,05/06/2024
61,longyearbyen,78.2186,15.6401,26.44,74,75,4.61,SJ,05/06/2024
62,kintinku,-5.8833,35.2333,74.21,71,96,4.25,TZ,05/06/2024
63,college,64.8569,-147.8028,39.45,65,100,5.75,US,05/06/2024
64,anadyr,64.75,177.4833,14.5,92,100,4.47,RU,05/06/2024
65,invercargill,-46.4,168.35,44.02,83,100,8.01,NZ,05/06/2024
66,thompson,55.7435,-97.8558,57.36,44,75,4.61,CA,05/06/2024
67,burao,9.5221,45.5336,73.58,78,74,18.59,SO,05/06/2024
68,constantia,44.1833,28.65,54.7,78,25,17.38,RO,05/06/2024
69,tezu,27.9167,96.1667,70.5,56,61,4.72,IN,05/06/2024
70,nova vicosa,-17.8919,-39.3719,82.58,63,3,9.19,BR,05/06/2024
71,weno,7.4515,151.8468,80.55,89,75,4.61,FM,05/06/2024
72,arafat,21.3594,39.9664,88.57,23,0,9.91,SA,05/06/2024
73,rio grande,-32.035,-52.0986,71.71,79,98,2.59,BR,05/06/2024
74,arpacay,40.8487,43.3291,42.44,89,100,4.38,TR,05/06/2024
75,olonkinbyen,70.9221,-8.7187,32.95,95,100,19.22,SJ,05/06/2024
76,antigonish,45.6169,-61.9986,48.81,91,100,5.99,CA,05/06/2024
77,udi,6.3144,7.4258,80.87,71,63,6.42,NG,05/06/2024
78,whangarei,-35.7317,174.3239,49.96,98,50,2.95,NZ,05/06/2024
79,hasaki,35.7333,140.8333,68.4,76,100,26.26,JP,05/06/2024
80,barra de santo antonio,-9.4047,-35.5072,79.88,72,73,12.84,BR,05/06/2024
81,cadale,2.7603,46.3222,81.72,80,92,12.73,SO,05/06/2024
82,visakhapatnam,17.69,83.2093,84.09,94,75,17.27,IN,05/06/2024
83,puerto ayora,-0.7393,-90.3518,80.56,93,9,5.01,EC,05/06/2024
84,lerwick,60.1545,-1.1494,50.0,95,100,6.51,GB,05/06/2024
85,vares,44.1644,18.3283,64.24,81,100,5.48,BA,05/06/2024
86,tazacorte,28.629,-17.9293,75.15,77,20,9.22,ES,05/06/2024
87,st. john's,47.5649,-52.7093,60.19,31,75,13.8,CA,05/06/2024
88,mossel bay,-34.1831,22.146,64.33,38,0,2.57,ZA,05/06/2024
89,greymouth,-42.4667,171.2,39.25,84,16,7.07,NZ,05/06/2024
90,tura,25.5198,90.2201,67.68,93,71,5.21,IN,05/06/2024
91,basi,26.8333,76.0333,93.54,15,69,4.85,IN,05/06/2024
92,kavaratti,10.5669,72.642,86.74,65,25,7.9,IN,05/06/2024
93,port douglas,-16.4833,145.4667,72.68,80,90,4.61,AU,05/06/2024
94,fort bragg,35.139,-79.006,81.19,69,75,10.36,US,05/06/2024
95,whiteville,34.3388,-78.7031,84.94,62,40,6.91,US,05/06/2024
96,kismayo,-0.3582,42.5454,81.05,83,92,13.49,SO,05/06/2024
97,nuuk,64.1835,-51.7216,27.21,59,20,13.8,GL,05/06/2024
98,miguel ahumada,30.6167,-106.5167,80.29,9,4,17.98,MX,05/06/2024
99,whakatane,-37.9585,176.9854,54.52,99,100,1.01,NZ,05/06/2024
100,tolanaro,-25.0319,46.9987,73.47,83,20,13.8,MG,05/06/2024
101,port mathurin,-19.6833,63.4167,79.14,71,1,24.27,MU,05/06/2024
102,pisco,-13.7,-76.2167,68.05,88,75,10.36,PE,05/06/2024
103,qaqortoq,60.7167,-46.0333,30.24,64,0,4.81,GL,05/06/2024
104,selfoss,63.9331,-20.9971,43.05,67,64,18.52,IS,05/06/2024
105,at-bashi,41.1702,75.8106,52.77,48,99,0.96,KG,05/06/2024
106,palmer,42.1584,-72.3287,74.5,64,100,1.01,US,05/06/2024
107,hawaiian paradise park,19.5933,-154.9731,69.03,97,100,6.91,US,05/06/2024
108,pavlodar,52.3,76.95,40.8,75,0,8.95,KZ,05/06/2024
109,codrington,-38.2667,141.9667,47.68,92,96,5.48,AU,05/06/2024
110,shiguai,40.7058,110.2856,56.44,22,0,4.32,CN,05/06/2024
111,bethel,41.3712,-73.414,72.55,75,100,4.61,US,05/06/2024
112,fortuna,40.5982,-124.1573,59.94,68,100,5.75,US,05/06/2024
113,port lincoln,-34.7333,135.8667,56.71,86,0,8.32,AU,05/06/2024
114,kendari,-3.945,122.4989,73.94,97,100,2.48,ID,05/06/2024
115,kittila,67.6647,24.8936,32.61,64,100,9.22,FI,05/06/2024
116,parfino,57.9731,31.6481,37.11,60,69,5.68,RU,05/06/2024
117,mount pearl,47.5166,-52.7813,59.34,31,75,13.8,CA,05/06/2024
118,portland,45.5234,-122.6762,53.55,92,75,6.91,US,05/06/2024
119,emmett,43.8735,-116.4993,56.28,53,55,1.01,US,05/06/2024
120,arica,-18.475,-70.3042,74.75,68,40,6.91,CL,05/06/2024
121,khvalynsk,52.4906,48.1058,45.37,65,58,1.79,RU,05/06/2024
122,forster,-32.1667,152.5167,65.37,79,98,11.36,AU,05/06/2024
123,hermanus,-34.4187,19.2345,58.8,79,11,7.18,ZA,05/06/2024
124,kone,-21.0595,164.8658,64.45,91,38,2.93,NC,05/06/2024
125,atafu village,-8.5421,-172.5159,85.55,74,52,14.92,TK,05/06/2024
126,yermentau,51.6214,73.1069,43.57,51,75,8.23,KZ,05/06/2024
127,mejit,10.2753,170.8646,81.28,82,100,20.76,MH,05/06/2024
128,bonthe,7.5264,-12.505,85.89,71,73,11.1,SL,05/06/2024
129,priladozhskiy,59.85,31.4833,35.53,99,14,5.14,RU,05/06/2024
130,puerto natales,-51.7236,-72.4875,39.65,48,0,4.61,CL,05/06/2024
131,rongelap,11.1635,166.8941,81.41,79,74,17.81,MH,05/06/2024
132,petropavlovsk-kamchatsky,53.0452,158.6483,34.39,78,100,8.01,RU,05/06/2024
133,bathsheba,13.2167,-59.5167,88.41,66,20,18.41,BB,05/06/2024
134,badger,64.8,-147.5333,37.71,69,100,5.75,US,05/06/2024
135,taoudenni,22.6783,-3.9836,99.77,4,26,6.29,ML,05/06/2024
136,xiaoweizhai,26.1903,107.5125,65.84,96,92,1.95,CN,05/06/2024
137,hami,42.8,93.45,78.71,12,7,17.6,CN,05/06/2024
138,shingu,33.7333,135.9833,65.14,98,100,9.48,JP,05/06/2024
139,zyryanovsk,49.7386,84.2719,51.35,72,100,3.33,KZ,05/06/2024
140,ad dawadimi,24.5077,44.3924,83.55,17,0,9.46,SA,05/06/2024
141,rakvere,59.3464,26.3558,35.64,70,32,5.79,EE,05/06/2024
142,cockburn town,21.4612,-71.1419,77.97,83,48,20.24,TC,05/06/2024
143,east london,-33.0153,27.9116,63.54,67,0,3.44,ZA,05/06/2024
144,santa cruz,-17.8,-63.1667,87.85,62,40,20.71,BO,05/06/2024
145,west island,-12.1568,96.8225,80.58,78,40,9.22,CC,05/06/2024
146,parry sound,45.3501,-80.033,57.25,47,10,8.9,CA,05/06/2024
147,chonchi,-42.6128,-73.8092,44.11,92,100,1.59,CL,05/06/2024
148,arraial do cabo,-22.9661,-42.0278,85.96,54,0,17.27,BR,05/06/2024
149,gustavsberg,59.3268,18.3898,46.29,57,32,11.5,SE,05/06/2024
150,margate,51.3813,1.3862,57.31,91,93,2.93,GB,05/06/2024
151,silifke,36.3778,33.9344,66.63,31,1,20.87,TR,05/06/2024
152,altar,30.7,-111.8167,75.06,31,6,4.56,MX,05/06/2024
153,dunedin,-45.8742,170.5036,46.8,65,78,1.01,NZ,05/06/2024
154,callao,-12.0667,-77.15,70.09,78,64,9.22,PE,05/06/2024
155,general cabrera,-32.8131,-63.8724,67.03,62,64,5.19,AR,05/06/2024
156,afaahiti,-17.75,-149.2833,82.27,85,55,26.98,PF,05/06/2024
157,minas de marcona,-15.2119,-75.1103,70.12,57,39,16.78,PE,05/06/2024
158,tangier,35.7806,-5.8137,76.24,82,0,10.36,MA,05/06/2024
159,santo antonio do taua,-1.1519,-48.1294,91.35,89,97,3.6,BR,05/06/2024
160,jamestown,42.097,-79.2353,65.84,48,0,6.91,US,05/06/2024
161,pucallpa,-8.3791,-74.5539,91.44,55,40,4.61,PE,05/06/2024
162,conceicao da barra,-18.5933,-39.7322,82.08,64,25,7.96,BR,05/06/2024
163,bratslav,48.8226,28.9407,60.89,69,55,6.51,UA,05/06/2024
164,bereeda,11.8704,51.0579,87.85,68,19,10.38,SO,05/06/2024
165,portstewart,55.1813,-6.714,53.29,81,97,15.75,GB,05/06/2024
166,puerto san jose,13.9256,-90.8244,89.82,62,23,14.45,GT,05/06/2024
167,myeik,12.4333,98.6,82.76,83,10,3.15,MM,05/06/2024
168,midvagur,62.0511,-7.1939,47.23,76,65,12.66,FO,05/06/2024
169,were ilu,10.6,39.4333,56.25,79,69,6.67,ET,05/06/2024
170,ust-nera,64.5667,143.2,21.24,97,17,5.1,RU,05/06/2024
171,quesnel,52.9999,-122.5029,50.5,71,75,4.61,CA,05/06/2024
172,piti village,13.4626,144.6933,80.65,89,0,4.61,GU,05/06/2024
173,enewetak,11.3474,162.3373,82.49,74,100,19.06,MH,05/06/2024
174,qamdo,31.1667,97.2333,41.47,59,92,1.92,CN,05/06/2024
175,guarapuava,-25.3953,-51.4581,77.79,38,0,6.51,BR,05/06/2024
176,ancud,-41.8697,-73.8203,42.21,89,100,8.57,CL,05/06/2024
177,beeville,28.4008,-97.7483,82.62,65,100,13.8,US,05/06/2024
178,quellon,-43.1167,-73.6167,45.32,88,100,8.7,CL,05/06/2024
179,kotabumi,-4.8333,104.9,75.13,97,44,4.38,ID,05/06/2024
180,hammerfest,70.6634,23.6821,32.45,80,75,10.36,NO,05/06/2024
181,moranbah,-22.0016,148.0466,68.05,83,100,13.33,AU,05/06/2024
182,hamilton,39.1834,-84.5333,73.6,80,75,4.61,US,05/06/2024
183,sinmak,38.4167,126.2333,53.4,98,100,6.89,KP,05/06/2024
184,avarua,-21.2078,-159.775,80.65,89,75,12.66,CK,05/06/2024
185,touros,-5.1989,-35.4608,83.88,76,59,13.44,BR,05/06/2024
186,buka,40.8108,69.1986,72.75,45,2,7.94,UZ,05/06/2024
187,ilha de mocambique,-15.0342,40.7358,76.21,79,2,5.12,MZ,05/06/2024
188,talnakh,69.4865,88.3972,15.21,96,100,6.62,RU,05/06/2024
189,guerrero negro,27.9769,-114.0611,64.04,56,96,17.54,MX,05/06/2024
190,uglegorsk,49.0833,142.0333,37.6,91,100,7.11,RU,05/06/2024
191,tazovsky,67.4667,78.7,15.69,94,100,11.83,RU,05/06/2024
192,ratnagiri,16.9833,73.3,81.3,81,0,8.5,IN,05/06/2024
193,zyryanskoye,56.8306,86.6258,36.91,76,41,5.93,RU,05/06/2024
194,gadzhiyevo,69.2551,33.3362,26.64,65,100,13.27,RU,05/06/2024
195,kalmunai,7.4167,81.8167,83.1,80,10,11.72,LK,05/06/2024
196,eastlake,41.6539,-81.4504,68.72,56,100,11.01,US,05/06/2024
197,nabire,-3.3667,135.4833,77.38,92,91,2.64,ID,05/06/2024
198,macau,22.2006,113.5461,78.6,88,20,9.22,MO,05/06/2024
199,san antonio de pale,-1.4014,5.6325,82.49,82,89,15.05,GQ,05/06/2024
200,villa gesell,-37.2639,-56.973,59.05,89,100,21.83,AR,05/06/2024
201,abong mbang,3.9833,13.1833,79.74,56,89,2.06,CM,05/06/2024
202,holualoa,19.6228,-155.9522,71.44,79,0,0.0,US,05/06/2024
203,sao gabriel da cachoeira,-0.1303,-67.0892,84.0,79,75,3.44,BR,05/06/2024
204,mao,39.8885,4.2658,64.96,94,40,8.05,ES,05/06/2024
205,aasiaat,68.7098,-52.8699,20.44,75,100,5.03,GL,05/06/2024
206,kirensk,57.7853,108.1119,54.19,75,100,13.06,RU,05/06/2024
207,wailua homesteads,22.0669,-159.378,72.75,82,75,18.41,US,05/06/2024
208,mangai,-4.05,19.5333,78.71,53,1,1.48,CD,05/06/2024
209,linxia chengguanzhen,35.6003,103.2064,55.2,36,83,1.3,CN,05/06/2024
210,vernon,50.2581,-119.2691,61.61,41,99,7.0,CA,05/06/2024
211,port alfred,-33.5906,26.891,64.18,95,0,1.77,ZA,05/06/2024
212,pelabuhanratu,-6.9875,106.5514,78.39,87,0,3.87,ID,05/06/2024
213,attapeu,14.8,106.8333,75.65,97,99,2.39,LA,05/06/2024
214,tobelo,1.7284,128.0095,79.84,82,99,3.49,ID,05/06/2024
215,isangel,-19.55,169.2667,73.04,69,44,10.45,VU,05/06/2024
216,porto novo,6.4965,2.6036,85.82,72,100,8.9,BJ,05/06/2024
217,ilulissat,69.2167,-51.1,23.02,68,75,12.66,GL,05/06/2024
218,bulayevo,54.9056,70.4439,47.93,52,61,13.49,KZ,05/06/2024
219,faya-largeau,17.9257,19.1043,95.86,12,0,12.15,TD,05/06/2024
220,cloquet,46.7216,-92.4594,69.39,43,40,11.5,US,05/06/2024
221,howard springs,-12.497,131.047,76.91,97,60,5.44,AU,05/06/2024
222,tiksi,71.6872,128.8694,30.87,88,100,5.59,RU,05/06/2024
223,flin flon,54.7682,-101.865,60.64,41,75,11.5,CA,05/06/2024
224,steinkjer,64.193,11.3851,47.34,58,2,8.61,NO,05/06/2024
225,georgetown,5.4112,100.3354,78.94,88,40,5.75,MY,05/06/2024
226,arar,30.9753,41.0381,75.22,20,0,6.91,SA,05/06/2024
227,mahina,-17.5065,-149.489,83.97,70,40,2.3,PF,05/06/2024
228,iskateley,67.6803,53.1512,20.28,88,99,10.38,RU,05/06/2024
229,manaure,11.7751,-72.4445,90.01,58,100,11.34,CO,05/06/2024
230,sirte,31.2089,16.5887,67.84,63,20,15.73,LY,05/06/2024
231,tsetserleg,47.475,101.4542,54.61,26,4,6.15,MN,05/06/2024
232,luau,-10.7073,22.2247,70.32,57,5,1.32,AO,05/06/2024
233,port angeles,48.1181,-123.4307,54.7,76,40,18.41,US,05/06/2024
234,tindouf,27.6711,-8.1474,99.05,6,0,20.71,DZ,05/06/2024
235,rawson,-43.3002,-65.1023,63.16,24,100,18.63,AR,05/06/2024
236,namibe,-15.1961,12.1522,72.79,81,4,11.39,AO,05/06/2024
237,guanare,9.0418,-69.7421,88.97,54,89,3.94,VE,05/06/2024
238,xishan,27.6667,113.5,67.66,88,100,3.22,CN,05/06/2024
239,kill devil hills,36.0307,-75.676,78.8,78,75,16.11,US,05/06/2024
240,guijuelo,40.5576,-5.6707,58.24,61,13,6.71,ES,05/06/2024
241,nizhneudinsk,54.9076,99.0276,49.62,74,100,5.59,RU,05/06/2024
242,coquimbo,-29.9533,-71.3436,60.53,67,0,12.66,CL,05/06/2024
243,nova russas,-4.7067,-40.5631,85.8,59,84,5.75,BR,05/06/2024
244,namdrik,5.5994,168.1028,82.99,80,100,18.9,MH,05/06/2024
245,bubaque,11.2833,-15.8333,79.5,72,21,17.13,GW,05/06/2024
246,tadine,-21.55,167.8833,68.09,75,29,9.73,NC,05/06/2024
247,vadso,70.0744,29.7487,29.28,86,75,9.22,NO,05/06/2024
248,soio,-6.1349,12.3689,80.46,88,70,14.12,AO,05/06/2024
249,jayapura,-2.5333,140.7,76.39,93,100,3.24,ID,05/06/2024
250,zeya,53.75,127.2667,46.49,51,5,3.24,RU,05/06/2024
251,al burayqah,30.4062,19.5739,66.81,71,81,8.32,LY,05/06/2024
252,midelt,32.6852,-4.7451,72.36,22,67,15.32,MA,05/06/2024
253,saudarkrokur,65.7461,-19.6394,45.9,49,60,17.6,IS,05/06/2024
254,byron bay,-28.65,153.6167,62.71,86,67,14.36,AU,05/06/2024
255,hadibu,12.65,54.0333,86.88,74,71,5.39,YE,05/06/2024
256,nurabad,34.0734,47.9725,49.1,91,6,6.31,IR,05/06/2024
257,reggane,26.7158,0.1714,96.49,5,69,14.09,DZ,05/06/2024
258,pimentel,-6.8367,-79.9342,75.49,64,0,11.5,PE,05/06/2024
259,sydney,-33.8679,151.2073,59.72,87,40,8.05,AU,05/06/2024
260,nantucket,41.2835,-70.0995,60.94,95,100,11.5,US,05/06/2024
261,la passe,45.5549,-0.8967,57.43,83,17,19.17,FR,05/06/2024
262,taksimo,56.3444,114.8794,51.93,52,100,1.5,RU,05/06/2024
263,siem reap,13.5,104.0,79.47,85,100,3.53,KH,05/06/2024
264,masterton,-40.9597,175.6575,44.1,78,82,4.07,NZ,05/06/2024
265,neiafu,-18.65,-173.9833,81.28,89,75,4.61,TO,05/06/2024
266,al muwayh,22.4333,41.7583,82.13,22,0,18.59,SA,05/06/2024
267,suoyarvi,62.0833,32.35,31.8,70,100,4.32,RU,05/06/2024
268,tauranga,-37.6861,176.1667,55.94,79,100,1.99,NZ,05/06/2024
269,polyarnyy,69.1989,33.4478,25.84,66,100,12.15,RU,05/06/2024
270,hoi an,15.8794,108.335,82.36,88,100,5.55,VN,05/06/2024
271,valday,57.9747,33.2525,39.04,53,52,4.0,RU,05/06/2024
272,sanchor,24.7553,71.7722,87.33,47,0,11.03,IN,05/06/2024
273,bodaybo,57.8506,114.1933,39.04,97,100,1.48,RU,05/06/2024
274,egilsstadir,65.2653,-14.3948,51.71,37,20,10.36,IS,05/06/2024
275,cabo san lucas,22.8909,-109.9124,87.1,36,75,6.91,MX,05/06/2024
276,viqueque,-8.8673,126.3658,74.17,93,100,1.68,TL,05/06/2024
277,nsanje,-16.92,35.262,76.19,64,25,5.77,MW,05/06/2024
278,aland,17.5667,76.5667,97.14,17,8,8.23,IN,05/06/2024
279,yamada,39.4667,141.95,57.9,81,100,5.64,JP,05/06/2024
280,kingston,17.997,-76.7936,90.16,70,20,20.71,JM,05/06/2024
281,bac lieu,9.285,105.7244,84.85,66,2,8.19,VN,05/06/2024
282,knyaze-volkonskoye,48.4642,135.4567,42.01,75,29,14.0,RU,05/06/2024
283,yreka,41.7354,-122.6345,51.3,66,100,0.0,US,05/06/2024
284,nicoya,10.1483,-85.452,97.68,32,71,1.5,CR,05/06/2024
285,paita,-5.0892,-81.1144,67.15,88,34,14.09,PE,05/06/2024
286,dudinka,69.4058,86.1778,15.62,99,97,6.49,RU,05/06/2024
287,boden,65.8252,21.6886,37.4,92,99,0.54,SE,05/06/2024
288,gambela,8.25,34.5833,83.08,56,96,4.05,ET,05/06/2024
289,bocas del toro,9.3333,-82.25,85.05,70,94,7.18,PA,05/06/2024
290,marshfield,44.6689,-90.1718,68.88,34,0,12.66,US,05/06/2024
291,zhigalovo,54.8097,105.1578,55.89,79,100,11.68,RU,05/06/2024
292,bosobolo,4.1833,19.9,87.91,38,38,2.82,CD,05/06/2024
293,nizhnyaya poyma,56.1622,97.1933,43.09,73,50,4.76,RU,05/06/2024
294,lagoa,39.05,-27.9833,62.73,89,100,30.82,PT,05/06/2024
295,whitehorse,60.7161,-135.0538,40.8,85,100,2.3,CA,05/06/2024
296,lospalos,-8.5186,127.0025,70.74,96,100,2.68,TL,05/06/2024
297,kanazawa,36.5944,136.6256,68.29,85,100,4.68,JP,05/06/2024
298,wewak,-3.5534,143.6268,78.35,93,100,4.32,PG,05/06/2024
299,plesetsk,62.708,40.2916,25.23,81,87,4.47,RU,05/06/2024
300,wabag,-5.4781,143.7021,58.57,98,100,2.8,PG,05/06/2024
301,san luis de la loma,17.2706,-100.8939,88.02,52,80,8.52,MX,05/06/2024
302,queenstown,-31.8976,26.8753,65.77,32,0,8.84,ZA,05/06/2024
303,cannonvale,-20.2833,148.7,74.59,89,41,11.83,AU,05/06/2024
304,keflavik,64.0049,-22.5624,45.03,65,75,21.85,IS,05/06/2024
305,urumqi,43.801,87.6005,67.15,43,0,6.71,CN,05/06/2024
306,haiku-pauwela,20.9219,-156.3051,75.22,90,40,14.97,US,05/06/2024
307,uturoa,-16.7333,-151.4333,82.22,81,33,22.86,PF,05/06/2024
308,alice springs,-23.7,133.8833,49.55,76,99,0.0,AU,05/06/2024
309,kushiro,42.975,144.3747,47.35,100,100,8.05,JP,05/06/2024
310,okhotsk,59.3833,143.3,34.02,92,84,1.9,RU,05/06/2024
311,acarau,-2.8856,-40.12,82.04,78,100,7.16,BR,05/06/2024
312,troy,42.6056,-83.1499,67.98,48,0,12.66,US,05/06/2024
313,tarhuna,32.435,13.6332,80.65,16,1,14.47,LY,05/06/2024
314,conception bay south,47.4999,-52.9981,59.95,43,100,11.5,CA,05/06/2024
315,praia da vitoria,38.7333,-27.0667,68.25,88,75,25.3,PT,05/06/2024
316,luena,-11.7833,19.9167,66.11,56,3,3.67,AO,05/06/2024
317,vallenar,-28.5708,-70.7581,71.58,41,0,10.18,CL,05/06/2024
318,lorengau,-2.0226,147.2712,81.45,84,100,9.04,PG,05/06/2024
319,udachny,66.4167,112.4,31.44,98,100,1.68,RU,05/06/2024
320,muisne,0.6,-80.0333,80.53,85,89,13.6,EC,05/06/2024
321,klaksvik,62.2266,-6.589,47.32,79,73,18.57,FO,05/06/2024
322,labytnangi,66.6572,66.4183,3.88,86,8,6.62,RU,05/06/2024
323,panaba,21.2833,-88.2667,101.52,25,5,12.53,MX,05/06/2024
324,yaring,6.8662,101.3689,77.81,91,19,5.1,TH,05/06/2024
325,zhaqsy,51.9083,67.3133,47.52,83,100,14.92,KZ,05/06/2024
326,kataysk,56.289,62.5841,38.89,83,85,5.99,RU,05/06/2024
327,sao joao da barra,-21.6403,-41.0511,86.09,75,0,11.05,BR,05/06/2024
328,saint croix,17.7397,-64.7388,84.96,78,92,7.0,VI,05/06/2024
329,isfana,39.8386,69.5306,55.96,50,11,6.58,KG,05/06/2024
330,sligo,54.2697,-8.4694,52.61,78,100,11.5,IE,05/06/2024
331,fort wellington,6.4,-57.6,85.95,66,98,10.38,GY,05/06/2024
332,mil'kovo,55.6078,37.7956,47.34,50,100,8.68,RU,05/06/2024
333,conduaga,8.862,117.4893,78.75,87,79,2.95,PH,05/06/2024
334,opuwo,-18.0607,13.84,70.86,27,0,4.07,NA,05/06/2024
335,luderitz,-26.6481,15.1594,58.12,86,0,11.01,NA,05/06/2024
336,sitka,57.0531,-135.33,46.29,66,75,3.44,US,05/06/2024
337,fauske,67.2588,15.3918,50.04,57,9,4.74,NO,05/06/2024
338,akureyri,65.6835,-18.0878,48.13,49,20,20.71,IS,05/06/2024
339,kidal,18.4411,1.4078,102.7,13,84,10.07,ML,05/06/2024
340,tual,-5.6667,132.75,78.94,85,100,12.64,ID,05/06/2024
341,revelstoke,50.9832,-118.2023,51.82,76,100,3.44,CA,05/06/2024
342,filey,54.21,-0.2892,56.88,87,100,3.0,GB,05/06/2024
343,kolwezi,-10.7148,25.4667,67.59,68,24,8.57,CD,05/06/2024
344,plettenberg bay,-34.0527,23.3716,61.11,52,0,3.8,ZA,05/06/2024
345,pratt,37.6439,-98.7376,69.76,100,0,21.85,US,05/06/2024
346,diego de almagro,-26.3667,-70.05,75.43,21,44,9.66,CL,05/06/2024
347,amga,60.8953,131.9608,38.19,94,13,4.16,RU,05/06/2024
348,mirny,62.5353,113.9611,37.24,97,100,8.99,RU,05/06/2024
349,aleg,17.0481,-13.9209,108.34,6,12,8.72,MR,05/06/2024
350,kenai,60.5544,-151.2583,40.14,95,100,8.05,US,05/06/2024
351,roma,43.2128,-75.4557,71.73,52,0,10.36,US,05/06/2024
352,tamanrasset,22.785,5.5228,89.51,14,40,10.36,DZ,05/06/2024
353,lundazi,-12.2929,33.1782,68.0,71,92,7.99,ZM,05/06/2024
354,prince rupert,54.3161,-130.3201,44.69,85,100,18.41,CA,05/06/2024
355,at taj,24.2049,23.2857,77.83,16,0,10.36,LY,05/06/2024
356,sao jose,-28.2333,-49.1667,90.46,34,0,5.21,BR,05/06/2024
357,camocim,-2.9022,-40.8411,85.03,70,96,11.95,BR,05/06/2024
358,ippy,6.2679,21.2247,85.39,37,17,4.29,CF,05/06/2024
359,inirida,3.8653,-67.9239,82.08,90,99,2.53,CO,05/06/2024
360,yaren,-0.5472,166.916,84.06,79,100,12.44,NR,05/06/2024
361,bratsk,56.1325,101.6142,48.69,70,100,9.64,RU,05/06/2024
362,kerikeri,-35.2268,173.9474,46.9,93,20,4.76,NZ,05/06/2024
363,revda,56.801,59.9303,38.39,92,98,10.2,RU,05/06/2024
364,sidi akkacha,36.4647,1.3026,79.09,65,100,6.24,DZ,05/06/2024
365,sparta,43.9441,-90.8129,70.18,35,0,10.36,US,05/06/2024
366,rovnoye,50.7765,46.0509,52.45,57,13,5.93,RU,05/06/2024
367,kota kinabalu,5.9749,116.0724,78.78,89,20,5.75,MY,05/06/2024
368,bereket,39.2446,55.5154,80.01,32,99,5.53,TM,05/06/2024
369,nizhneangarsk,55.7833,109.55,42.01,61,100,1.01,RU,05/06/2024
370,sinabang,2.4803,96.3801,81.3,85,58,6.08,ID,05/06/2024
371,carnarvon,-24.8667,113.6333,69.26,58,0,19.19,AU,05/06/2024
372,suva,-18.1416,178.4415,76.48,100,75,2.3,FJ,05/06/2024
373,tabas,33.5959,56.9244,81.61,23,94,19.04,IR,05/06/2024
374,lebu,-37.6167,-73.65,56.37,76,45,26.82,CL,05/06/2024
375,arvayheer,46.2639,102.775,56.16,23,1,6.02,MN,05/06/2024
376,itoman,26.1247,127.6694,75.22,94,100,4.61,JP,05/06/2024
377,majuro,7.0897,171.3803,76.96,88,100,8.05,MH,05/06/2024
378,kapa'a,22.0752,-159.319,74.1,82,75,18.41,US,05/06/2024
379,angaur state,6.906,134.13,82.81,78,99,8.01,PW,05/06/2024
380,sur,22.5667,59.5289,91.98,47,77,4.52,OM,05/06/2024
381,fort st. john,56.2499,-120.8529,44.49,87,100,12.66,CA,05/06/2024
382,baghlan,35.75,69.0,59.7,52,2,1.88,AF,05/06/2024
383,silver city,32.7701,-108.2803,64.69,29,0,16.11,US,05/06/2024
384,qusmuryn,52.4503,64.6311,47.14,83,8,11.63,KZ,05/06/2024
385,saint-philippe,-21.3585,55.7679,76.59,85,74,8.7,RE,05/06/2024
386,khandyga,62.6667,135.6,27.37,96,72,4.83,RU,05/06/2024
387,bedford,52.1346,-0.4663,58.82,92,100,5.75,GB,05/06/2024
388,tangalle,6.024,80.7911,80.47,90,58,7.92,LK,05/06/2024
389,severo-yeniseyskiy,60.3725,93.0408,31.57,88,82,11.01,RU,05/06/2024
390,phu ly,20.5411,105.9139,75.96,98,43,3.18,VN,05/06/2024
391,joigny,47.9829,3.401,55.81,86,43,6.38,FR,05/06/2024
392,daru,-9.0763,143.2092,79.38,87,100,13.31,PG,05/06/2024
393,funafuti,-8.5243,179.1942,84.2,84,75,6.91,TV,05/06/2024
394,brookings,44.3114,-96.7984,64.18,82,100,24.16,US,05/06/2024
395,ngambe,4.2333,10.6167,75.24,95,64,3.87,CM,05/06/2024
396,vikhorevka,56.1201,101.1636,49.59,64,100,10.02,RU,05/06/2024
397,humberto de campos,-2.5983,-43.4611,84.76,85,94,4.07,BR,05/06/2024
398,vershino-darasunskiy,52.35,115.5167,43.61,58,43,3.44,RU,05/06/2024
399,micheweni,-4.9667,39.8333,80.69,84,100,17.09,TZ,05/06/2024
400,beau vallon,-20.4189,57.6953,77.23,69,40,13.8,MU,05/06/2024
401,marsa alam,25.0757,34.8918,74.91,51,0,7.27,EG,05/06/2024
402,ghat,24.9647,10.1728,80.2,35,66,6.78,LY,05/06/2024
403,nadym,65.5333,72.5167,7.25,98,72,4.97,RU,05/06/2024
404,undurkhaan,47.3194,110.6556,53.91,32,8,2.71,MN,05/06/2024
405,salamanca,40.8333,-6.0,60.58,60,6,7.76,ES,05/06/2024
406,alamosa,37.4695,-105.87,44.58,23,0,28.77,US,05/06/2024
407,kununurra,-15.7667,128.7333,64.38,77,11,2.3,AU,05/06/2024
408,ulsteinvik,62.3432,5.8487,56.3,86,18,4.0,NO,05/06/2024
409,broome,42.2506,-75.833,70.2,73,75,6.91,US,05/06/2024
410,alofi,-19.0595,-169.9187,78.69,94,75,4.61,NU,05/06/2024
411,manicore,-5.8092,-61.3003,89.62,63,98,3.87,BR,05/06/2024
412,fale old settlement,-9.3852,-171.2468,85.37,75,49,13.71,TK,05/06/2024
413,eatonton,33.3268,-83.3885,84.34,78,99,5.97,US,05/06/2024
414,statesboro,32.4488,-81.7832,85.53,60,40,4.61,US,05/06/2024
415,atasu,48.6814,71.6433,48.52,42,84,10.76,KZ,05/06/2024
416,beloyarskiy,63.7119,66.6722,27.0,97,99,5.01,RU,05/06/2024
417,saint-pierre,-21.3393,55.4781,76.68,65,75,14.97,RE,05/06/2024
418,tchintabaraden,15.8969,5.7985,99.99,9,14,11.21,NE,05/06/2024
419,pitimbu,-7.4706,-34.8086,86.59,78,100,13.2,BR,05/06/2024
420,hafnarfjordur,64.0671,-21.9377,44.98,76,75,17.27,IS,05/06/2024
421,arteche,12.2645,125.4048,78.64,87,65,3.67,PH,05/06/2024
422,taquaritinga,-21.4061,-48.5047,88.99,33,16,5.7,BR,05/06/2024
423,ulladulla,-35.35,150.4667,57.79,86,70,4.79,AU,05/06/2024
424,meadow lakes,61.6247,-149.6011,42.12,94,100,4.61,US,05/06/2024
425,coahuayana de hidalgo,18.7,-103.6583,89.31,38,100,6.8,MX,05/06/2024
426,puerto deseado,-47.7503,-65.8938,42.98,41,16,11.25,AR,05/06/2024
427,yucca valley,34.1142,-116.4322,67.96,27,51,5.99,US,05/06/2024
428,goundam,16.4145,-3.6708,103.62,6,89,10.36,ML,05/06/2024
429,poxoreo,-15.8372,-54.3892,92.28,32,2,7.0,BR,05/06/2024
430,lata,40.1629,-8.3327,63.91,60,0,9.78,PT,05/06/2024
431,islamorada,24.9243,-80.6278,84.2,86,55,17.07,US,05/06/2024
432,harstad,68.799,16.5293,40.39,81,24,15.99,NO,05/06/2024
433,la asuncion,11.0333,-63.8628,84.7,69,72,16.49,VE,05/06/2024
434,vila velha,-20.3297,-40.2925,85.95,58,20,9.22,BR,05/06/2024
435,jining,35.405,116.5814,57.24,69,0,7.16,CN,05/06/2024
436,bayanaul,50.7889,75.6956,43.5,54,91,8.61,KZ,05/06/2024
437,horta,38.5333,-28.6333,62.24,96,75,6.91,PT,05/06/2024
438,meizhou,24.2977,116.1072,74.39,82,100,1.72,CN,05/06/2024
439,isoka,-10.1606,32.6335,63.45,94,23,3.4,ZM,05/06/2024
440,tanumah,27.1,44.1333,82.36,14,1,13.67,SA,05/06/2024
441,flying fish cove,-10.4217,105.6791,76.68,94,75,9.22,CX,05/06/2024
442,lompoc,34.6391,-120.4579,69.62,57,0,14.97,US,05/06/2024
443,doctor alberto oviedo mota,32.2275,-115.1697,75.99,17,63,6.55,MX,05/06/2024
444,rehoboth,-23.3167,17.0833,71.02,22,0,9.57,NA,05/06/2024
445,nova sintra,14.8667,-24.7167,74.05,76,11,19.26,CV,05/06/2024
446,inda silase,14.1031,38.2829,75.83,16,1,9.82,ET,05/06/2024
447,lys'va,58.1086,57.8053,35.49,98,100,9.26,RU,05/06/2024
448,katima mulilo,-17.5,24.2667,74.16,34,2,5.17,NA,05/06/2024
449,hobyo,5.3505,48.5268,85.33,74,100,10.92,SO,05/06/2024
450,miramichi,47.0043,-65.4654,58.14,71,100,10.11,CA,05/06/2024
451,merizo village,13.2658,144.6691,80.33,94,58,9.82,GU,05/06/2024
452,rancho palos verdes,33.7445,-118.387,70.43,69,20,6.91,US,05/06/2024
453,laguna,38.421,-121.4238,65.32,58,0,3.44,US,05/06/2024
454,kampong speu,11.5,104.3333,79.47,84,61,1.61,KH,05/06/2024
455,pankovka,58.5,31.1999,40.1,68,46,5.75,RU,05/06/2024
456,mount gambier,-37.8333,140.7667,45.99,96,6,3.85,AU,05/06/2024
457,karasu,41.071,30.7854,48.97,70,0,6.31,TR,05/06/2024
458,vorkuta,67.5,64.0,-0.89,100,16,3.0,RU,05/06/2024
459,westerland,54.9079,8.3033,57.02,87,20,10.36,DE,05/06/2024
460,moyynkum,44.2914,72.9469,61.41,44,28,14.2,KZ,05/06/2024
461,arkhangel'sk,64.5401,40.5433,30.31,51,20,8.95,RU,05/06/2024
462,watsa,3.0372,29.5355,74.52,59,57,3.51,CD,05/06/2024
463,volgorechensk,57.4393,41.1555,35.22,62,48,6.13,RU,05/06/2024
464,caleta de carquin,-11.0925,-77.6267,66.25,87,43,13.22,PE,05/06/2024
465,baise city,23.8997,106.6133,76.33,99,97,2.17,CN,05/06/2024
466,falenki,58.3613,51.5946,31.21,94,91,7.34,RU,05/06/2024
467,vilyuchinsk,52.9306,158.4028,35.87,92,100,2.57,RU,05/06/2024
468,asahi,35.7167,140.65,68.38,71,100,19.26,JP,05/06/2024
469,morondava,-20.2833,44.2833,78.89,73,0,14.72,MG,05/06/2024
470,tropea,38.6754,15.8948,65.5,69,37,3.49,IT,05/06/2024
471,monticello,45.3055,-93.7941,71.94,45,75,18.41,US,05/06/2024
472,autun,46.95,4.3,52.56,97,75,2.89,FR,05/06/2024
473,naama,33.2667,-0.3167,78.13,11,100,10.13,DZ,05/06/2024
474,mhamid,29.82,-5.72,94.84,4,25,17.25,MA,05/06/2024
475,madang,-5.2246,145.7966,76.66,92,100,3.27,PG,05/06/2024
476,hell-ville,-13.4,48.2667,83.68,62,95,5.01,MG,05/06/2024
477,athens,37.9795,23.7162,70.9,51,0,5.01,GR,05/06/2024
478,bhadrachalam,17.6667,80.8833,85.53,71,60,9.26,IN,05/06/2024
479,manta,-0.95,-80.7333,87.58,66,40,10.36,EC,05/06/2024
480,salinopolis,-0.6136,-47.3561,84.43,74,99,12.06,BR,05/06/2024
481,malvan,16.0667,73.4667,82.69,78,2,13.13,IN,05/06/2024
482,metlili chaamba,32.2667,3.6333,92.34,7,0,8.05,DZ,05/06/2024
483,puerto lleras,3.0223,-73.4044,78.06,84,100,0.47,CO,05/06/2024
484,sibay,52.7181,58.6658,46.22,63,70,8.99,RU,05/06/2024
485,nova olimpia,-14.7972,-57.2881,93.25,33,0,4.45,BR,05/06/2024
486,canon city,38.441,-105.2424,58.01,17,0,39.12,US,05/06/2024
487,arris,35.2588,6.3471,67.37,29,100,4.61,DZ,05/06/2024
488,sant'antioco,39.0664,8.4522,63.07,81,83,4.7,IT,05/06/2024
489,bardai,11.65,7.2333,96.39,24,87,2.44,NG,05/06/2024
490,salaberry-de-valleyfield,45.2501,-74.1325,68.02,61,37,10.36,CA,05/06/2024
491,konosha,60.9736,40.257,29.35,74,99,4.14,RU,05/06/2024
492,srikakulam,18.3,83.9,81.61,83,80,8.37,IN,05/06/2024
493,hoquiam,46.9809,-123.8893,53.01,76,20,16.11,US,05/06/2024
494,znamensk,48.5842,45.7338,57.27,51,72,8.99,RU,05/06/2024
495,puerto colombia,10.9878,-74.9547,93.29,72,99,6.78,CO,05/06/2024
496,salekhard,66.53,66.6019,2.08,88,9,5.59,RU,05/06/2024
497,freguesia do ribeirao da ilha,-27.7177,-48.5627,84.06,76,0,14.97,BR,05/06/2024
498,shimoda,34.6667,138.95,66.11,86,100,12.19,JP,05/06/2024
499,tsiombe,-25.3,45.4833,70.0,83,0,7.43,MG,05/06/2024
500,kodinsk,58.6881,99.1844,45.45,81,49,10.25,RU,05/06/2024
501,machico,32.7,-16.7667,72.72,75,20,5.75,PT,05/06/2024
502,mezhdurechenskiy,59.6,65.9333,39.79,91,100,12.41,RU,05/06/2024
503,broken hill,-31.95,141.4333,53.49,64,0,11.41,AU,05/06/2024
504,camayenne,9.535,-13.6878,89.69,66,20,11.5,GN,05/06/2024
505,hacienda huancane,-15.8222,-70.8856,57.42,33,58,9.15,PE,05/06/2024
506,tralee,52.2704,-9.7026,57.45,77,100,4.61,IE,05/06/2024
507,belyy yar,53.6039,91.3903,42.69,65,0,2.24,RU,05/06/2024
508,kerema,-7.9631,145.7785,76.75,89,97,3.13,PG,05/06/2024
509,fada,9.5667,8.3,81.75,57,95,0.56,NG,05/06/2024
510,chu,43.5983,73.7614,58.93,75,80,5.57,KZ,05/06/2024
511,san patricio,28.017,-97.5169,84.09,64,64,17.18,US,05/06/2024
512,guiuan,11.0333,125.7247,82.49,73,63,7.45,PH,05/06/2024
513,chibougamau,49.9168,-74.3659,47.82,71,100,18.41,CA,05/06/2024
514,pabrade,55.0,25.7833,50.25,95,96,8.19,LT,05/06/2024
515,nanao,37.05,136.9667,67.32,89,100,3.24,JP,05/06/2024
516,cozumel,20.5083,-86.9458,89.94,79,8,5.01,MX,05/06/2024
517,tafuna,-14.3358,-170.72,84.15,84,75,6.91,AS,05/06/2024
518,xilin hot,43.9667,116.0333,50.27,31,37,5.82,CN,05/06/2024
519,ushachy,55.1786,28.6035,43.68,94,100,7.05,BY,05/06/2024
520,labrador city,52.9463,-66.9114,47.17,59,100,21.0,CA,05/06/2024
521,president roxas,7.1544,125.0558,75.52,90,95,2.71,PH,05/06/2024
522,haimen,23.1935,116.6142,76.89,89,100,3.2,CN,05/06/2024
523,yuanping,38.7153,112.7575,59.43,36,40,1.77,CN,05/06/2024
524,al jawf,29.5,38.75,71.51,22,3,17.16,SA,05/06/2024
525,nguigmi,14.2495,13.1092,91.81,22,87,7.0,NE,05/06/2024
526,pointe michel,15.25,-61.3833,95.94,52,40,1.14,DM,05/06/2024
527,pocone,-16.2567,-56.6228,97.48,24,0,7.43,BR,05/06/2024
528,howrah,22.5892,88.3103,75.2,88,100,10.36,IN,05/06/2024
529,happy valley-goose bay,53.3168,-60.3315,50.31,66,100,13.8,CA,05/06/2024
530,chinchilla,-26.75,150.6333,57.02,89,36,1.99,AU,05/06/2024
531,bandarbeyla,9.4942,50.8122,84.52,79,96,7.61,SO,05/06/2024
532,ringkobing,56.0901,8.244,53.58,94,100,3.44,DK,05/06/2024
533,lisala,2.15,21.5167,80.56,59,33,2.57,CD,05/06/2024
534,vila franca do campo,37.7167,-25.4333,66.61,99,100,19.89,PT,05/06/2024
535,pacasmayo,-7.4006,-79.5714,64.62,91,45,15.68,PE,05/06/2024
536,sungailiat,-1.85,106.1333,81.32,84,62,6.44,ID,05/06/2024
537,lenino,45.2986,35.7771,60.39,63,4,8.79,UA,05/06/2024
538,murun-kuren,49.6342,100.1625,62.69,22,16,2.39,MN,05/06/2024
539,mount darwin,-16.7725,31.5838,65.91,50,0,3.96,ZW,05/06/2024
540,mount pleasant,32.7941,-79.8626,85.98,69,40,13.8,US,05/06/2024
541,zaragoza,41.6561,-0.8773,69.03,43,40,14.97,ES,05/06/2024
542,lucapa,-8.4192,20.7447,72.91,52,57,1.59,AO,05/06/2024
543,chui,-33.6971,-53.4616,68.77,96,100,3.71,UY,05/06/2024
544,kawambwa,-9.7915,29.0791,65.32,84,65,3.02,ZM,05/06/2024
545,afua,-0.1567,-50.3867,81.59,86,100,3.76,BR,05/06/2024
546,podporozh'ye,60.9112,34.1706,31.98,77,97,3.15,RU,05/06/2024
547,kuta,-8.7233,115.1723,80.55,94,75,1.14,ID,05/06/2024
548,saldanha,-33.0117,17.9442,60.85,91,0,8.93,ZA,05/06/2024
549,kasongo,-4.45,26.6667,76.06,68,24,1.5,CD,05/06/2024
550,nikolayevsk-on-amure,53.1406,140.73,29.3,90,9,2.82,RU,05/06/2024
551,katsuura,35.1333,140.3,68.67,78,100,25.12,JP,05/06/2024
552,pikeville,37.4793,-82.5188,71.19,98,100,5.75,US,05/06/2024
553,toliara,-23.35,43.6667,71.65,71,0,6.67,MG,05/06/2024
554,fortaleza,-3.7227,-38.5247,87.93,66,40,19.57,BR,05/06/2024
555,mweka,-4.85,21.5667,76.12,52,11,1.14,CD,05/06/2024
556,magadan,59.5667,150.8,31.53,92,74,2.28,RU,05/06/2024
557,ejea de los caballeros,42.1263,-1.1372,64.62,49,15,21.16,ES,05/06/2024
558,melekeok village,7.4957,134.6367,81.16,83,75,0.0,PW,05/06/2024
559,kinkala,-4.3614,14.7644,84.2,56,58,2.44,CG,05/06/2024
560,balod,20.73,81.2047,93.02,21,1,5.37,IN,05/06/2024
561,natal,-5.795,-35.2094,89.82,62,40,16.11,BR,05/06/2024
562,oum hadjer,13.2954,19.6966,95.77,8,0,5.5,TD,05/06/2024
563,los andes,-32.8337,-70.5983,62.37,33,0,5.73,CL,05/06/2024
564,camana,-16.6228,-72.7111,71.06,81,58,9.64,PE,05/06/2024
565,adam,22.3756,57.5233,93.36,37,46,6.78,OM,05/06/2024
566,springbok,-29.6643,17.8865,64.49,36,0,4.0,ZA,05/06/2024
567,al mayadin,35.0209,40.4535,71.49,35,36,10.69,SY,05/06/2024
568,mili,6.0815,171.735,82.76,81,93,19.86,MH,05/06/2024
569,maine soroa,13.2114,12.0241,99.59,12,99,15.17,NE,05/06/2024
570,okha,53.5739,142.9478,31.24,83,7,8.01,RU,05/06/2024
571,bonab,37.3404,46.0561,48.65,81,100,9.22,IR,05/06/2024
572,hanceville,34.0607,-86.7675,84.16,52,60,7.81,US,05/06/2024
573,pierre,44.3683,-100.351,60.85,85,100,26.46,US,05/06/2024
574,kingscliff,-28.2667,153.5667,64.2,94,40,10.36,AU,05/06/2024
575,catriel,-37.8791,-67.7956,65.62,36,0,15.68,AR,05/06/2024
576,mariental,-24.6333,17.9667,76.44,16,0,8.63,NA,05/06/2024
577,ardakan,32.31,54.0175,74.57,36,100,7.47,IR,05/06/2024
578,hotan,37.0997,79.9269,73.69,15,90,4.36,CN,05/06/2024
579,shalazhi,43.0978,45.3608,52.93,94,92,0.43,RU,05/06/2024
580,hovd,48.0056,91.6419,64.47,30,92,5.82,MN,05/06/2024
581,mukalla,14.5425,49.1242,84.54,78,0,4.36,YE,05/06/2024
582,palmwoods,-26.6833,152.9667,62.64,90,25,2.86,AU,05/06/2024
