City_ID,City,Lat,Lng,Max Temp,Humidity,Cloudiness,Wind Speed,Country,Date
0,carrick-on-suir,52.3492,-7.4131,16.47,74,94,2.22,IE,05/07/2024
1,longyearbyen,78.2186,15.6401,0.91,75,75,1.54,SJ,05/07/2024
2,invercargill,-46.4,168.35,6.12,90,96,2.24,NZ,05/07/2024
3,waitangi,-43.9535,-176.5597,9.63,55,22,3.48,NZ,05/07/2024
4,albany,42.6001,-73.9662,19.82,50,0,0.89,US,05/07/2024
5,bertioga,-23.8544,-46.1386,32.0,51,0,1.03,BR,05/07/2024
6,fort-shevchenko,44.5086,50.263,13.19,94,100,9.43,KZ,05/07/2024
7,shimoda,34.6667,138.95,18.39,95,100,4.17,JP,05/07/2024
8,bilibino,68.0546,166.4372,-6.42,99,77,0.39,RU,05/07/2024
9,port-aux-francais,-49.35,70.2167,4.44,77,23,15.17,TF,05/07/2024
10,malango,-2.9627,119.9001,19.93,99,100,0.75,ID,05/07/2024
11,weno,7.4515,151.8468,25.97,94,100,0.0,FM,05/07/2024
12,yellowknife,62.456,-114.3525,10.23,72,75,3.09,CA,05/07/2024
13,adamstown,-25.066,-130.1015,21.6,78,63,5.16,PN,05/07/2024
14,puerto natales,-51.7236,-72.4875,-0.75,86,0,0.0,CL,05/07/2024
15,qaqortoq,60.7167,-46.0333,2.22,47,40,0.45,GL,05/07/2024
16,bethel,41.3712,-73.414,23.27,48,0,2.06,US,05/07/2024
17,paita,-5.0892,-81.1144,21.84,75,99,6.51,PE,05/07/2024
18,aras-asan,8.8908,126.3033,26.08,83,100,1.25,PH,05/07/2024
19,isafjordur,66.0755,-23.124,7.02,53,75,3.09,IS,05/07/2024
20,mount pearl,47.5166,-52.7813,8.58,92,100,3.09,CA,05/07/2024
21,edinburgh of the seven seas,-37.0676,-12.3116,15.41,80,68,15.64,SH,05/07/2024
22,maues,-3.3836,-57.7186,26.6,93,100,1.67,BR,05/07/2024
23,saint-philippe,-21.3585,55.7679,24.77,74,77,6.64,RE,05/07/2024
24,haiku-pauwela,20.9219,-156.3051,22.25,79,20,2.24,US,05/07/2024
25,afaahiti,-17.75,-149.2833,23.93,76,88,7.62,PF,05/07/2024
26,hammerfest,70.6634,23.6821,1.25,60,20,3.6,NO,05/07/2024
27,iqaluit,63.7506,-68.5145,-4.15,73,20,9.26,CA,05/07/2024
28,yuktae-dong,40.0247,128.1597,10.05,84,100,0.95,KP,05/07/2024
29,saipan,15.1355,145.701,28.39,69,75,3.09,MP,05/07/2024
30,grytviken,-54.2811,-36.5092,-0.8,77,59,3.56,GS,05/07/2024
31,pangody,65.85,74.4859,-3.4,95,98,6.46,RU,05/07/2024
32,mili,6.0815,171.735,28.01,84,94,9.23,MH,05/07/2024
33,champerico,14.3,-91.9167,29.3,68,40,2.26,GT,05/07/2024
34,chibougamau,49.9168,-74.3659,2.79,81,100,5.66,CA,05/07/2024
35,matoury,4.8483,-52.3317,27.98,89,100,2.57,GF,05/07/2024
36,makokou,0.5738,12.8642,29.5,65,99,2.21,GA,05/07/2024
37,margaret river,-33.95,115.0667,16.85,55,34,5.19,AU,05/07/2024
38,bredasdorp,-34.5322,20.0403,17.72,83,94,5.88,ZA,05/07/2024
39,vadso,70.0744,29.7487,1.49,80,40,5.66,NO,05/07/2024
40,hermanus,-34.4187,19.2345,14.89,92,94,4.86,ZA,05/07/2024
41,georgetown,5.4112,100.3354,30.97,74,40,2.06,MY,05/07/2024
42,hasaki,35.7333,140.8333,20.22,89,100,7.78,JP,05/07/2024
43,novopskov,49.5464,39.0899,21.05,39,11,8.41,UA,05/07/2024
44,susuman,62.7833,148.1667,0.55,75,100,2.24,RU,05/07/2024
45,ribeira brava,32.65,-17.0667,25.95,68,77,4.95,PT,05/07/2024
46,san antonio de pale,-1.4014,5.6325,27.75,79,99,3.95,GQ,05/07/2024
47,caleta de carquin,-11.0925,-77.6267,20.92,82,99,4.54,PE,05/07/2024
48,hirara,24.8,125.2833,24.92,83,75,3.6,JP,05/07/2024
49,papatowai,-46.5619,169.4708,9.16,85,99,4.62,NZ,05/07/2024
50,mil'kovo,55.6078,37.7956,3.22,99,100,6.33,RU,05/07/2024
51,utrik,11.2278,169.8474,28.21,71,97,8.63,MH,05/07/2024
52,dryden,49.7833,-92.7503,13.16,50,0,5.14,CA,05/07/2024
53,jalai nur,49.45,117.7,13.54,29,2,3.73,CN,05/07/2024
54,wailua homesteads,22.0669,-159.378,22.44,82,75,7.2,US,05/07/2024
55,port alfred,-33.5906,26.891,19.54,92,2,0.89,ZA,05/07/2024
56,touros,-5.1989,-35.4608,30.83,58,75,5.97,BR,05/07/2024
57,yuzhno-kurilsk,44.0306,145.8556,5.76,99,100,2.9,RU,05/07/2024
58,sheksna,59.21,38.5107,4.98,56,100,4.27,RU,05/07/2024
59,murakami,38.2333,139.4833,13.94,95,100,3.17,JP,05/07/2024
60,jining,35.405,116.5814,15.33,44,1,3.75,CN,05/07/2024
61,laojunmiao,39.8333,97.7333,17.52,14,0,2.54,CN,05/07/2024
62,queenstown,-31.8976,26.8753,23.28,25,0,3.85,ZA,05/07/2024
63,east london,-33.0153,27.9116,35.52,20,0,3.6,ZA,05/07/2024
64,champua,22.0833,85.6667,22.82,81,100,9.9,IN,05/07/2024
65,kingston,17.997,-76.7936,31.53,66,20,1.54,JM,05/07/2024
66,kununurra,-15.7667,128.7333,22.99,73,68,0.0,AU,05/07/2024
67,thompson,55.7435,-97.8558,5.09,75,75,4.12,CA,05/07/2024
68,laukaa,58.7372,29.8453,7.05,34,100,4.88,RU,05/07/2024
69,kismayo,-0.3582,42.5454,27.5,81,79,7.55,SO,05/07/2024
70,manaus,-3.1019,-60.025,29.27,79,75,2.57,BR,05/07/2024
71,klyuchi,52.2667,79.1667,13.84,38,100,3.46,RU,05/07/2024
72,puerto leguizamo,-0.1934,-74.7819,24.74,94,99,0.61,CO,05/07/2024
73,puerto ayora,-0.7393,-90.3518,25.98,97,49,1.34,EC,05/07/2024
74,salalah,17.0151,54.0924,31.05,79,40,6.17,OM,05/07/2024
75,keflavik,64.0049,-22.5624,4.95,93,100,6.69,IS,05/07/2024
76,rio claro,-22.4114,-47.5614,30.78,57,0,2.93,BR,05/07/2024
77,san matias,-16.3667,-58.4,34.32,34,43,4.52,BO,05/07/2024
78,jamestown,42.097,-79.2353,20.01,47,40,2.57,US,05/07/2024
79,bamboo flat,11.7,92.7167,28.05,78,40,1.03,IN,05/07/2024
80,acarau,-2.8856,-40.12,30.49,67,79,5.61,BR,05/07/2024
81,plastun,44.7561,136.2939,1.86,87,100,0.22,RU,05/07/2024
82,key west,24.5557,-81.7826,28.33,78,40,6.17,US,05/07/2024
83,tiksi,71.6872,128.8694,0.21,99,100,5.83,RU,05/07/2024
84,petrovsk,52.3064,45.3917,16.82,66,98,9.49,RU,05/07/2024
85,ta`u,-14.2336,-169.5144,28.67,81,100,4.27,AS,05/07/2024
86,morondava,-20.2833,44.2833,26.99,66,0,5.46,MG,05/07/2024
87,mata-utu,-13.2816,-176.1745,29.52,77,100,5.17,WF,05/07/2024
88,magadan,59.5667,150.8,-0.26,99,99,1.72,RU,05/07/2024
89,el calafate,-50.3408,-72.2768,-2.57,68,98,1.39,AR,05/07/2024
90,punta arenas,-53.15,-70.9167,2.06,93,100,3.09,CL,05/07/2024
91,coahuayana de hidalgo,18.7,-103.6583,27.45,34,99,0.94,MX,05/07/2024
92,turochak,52.2576,87.1224,10.73,69,99,0.24,RU,05/07/2024
93,anadyr,64.75,177.4833,-7.72,86,75,8.0,RU,05/07/2024
94,castillos,-34.1667,-53.8333,20.39,98,100,2.1,UY,05/07/2024
95,chul'man,56.8479,124.9104,3.49,100,100,0.89,RU,05/07/2024
96,blackmans bay,-43.0167,147.3167,11.07,87,100,1.7,AU,05/07/2024
97,uliastay,47.7417,96.8444,12.37,57,100,2.98,MN,05/07/2024
98,el-tor,28.2364,33.6254,26.08,50,0,10.29,EG,05/07/2024
99,vila do maio,15.1333,-23.2167,32.44,73,1,6.54,CV,05/07/2024
100,bay city,43.5945,-83.8889,18.92,53,75,5.14,US,05/07/2024
101,firmat,-33.4594,-61.4832,17.17,76,100,2.43,AR,05/07/2024
102,san patricio,28.017,-97.5169,27.87,79,100,1.72,US,05/07/2024
103,korla,41.7597,86.1469,26.77,14,100,1.86,CN,05/07/2024
104,illushi,6.6667,6.6308,33.1,56,99,2.77,NG,05/07/2024
105,ende,-8.8432,121.6623,24.08,93,59,2.67,ID,05/07/2024
106,jayapura,-2.5333,140.7,26.66,92,100,3.69,ID,05/07/2024
107,klaksvik,62.2266,-6.589,10.51,74,75,7.99,FO,05/07/2024
108,kodiak,57.79,-152.4072,3.73,87,100,3.6,US,05/07/2024
109,lihue,21.9789,-159.3672,22.77,78,75,7.2,US,05/07/2024
110,hotan,37.0997,79.9269,23.66,22,5,1.61,CN,05/07/2024
111,olonkinbyen,70.9221,-8.7187,-0.29,88,12,4.4,SJ,05/07/2024
112,aral,40.5156,81.2636,25.37,17,12,0.95,CN,05/07/2024
113,port douglas,-16.4833,145.4667,24.48,84,77,6.54,AU,05/07/2024
114,hithadhoo,-0.6,73.0833,29.79,75,90,4.14,MV,05/07/2024
115,paradip garh,20.3167,86.6167,25.9,75,100,5.92,IN,05/07/2024
116,badger,64.8,-147.5333,2.27,90,75,3.09,US,05/07/2024
117,teknaf,20.8624,92.3058,27.84,77,38,3.41,BD,05/07/2024
118,ubinskoye,55.3068,79.6802,10.45,55,100,3.16,RU,05/07/2024
119,ciudad pemex,17.9,-92.5,34.54,38,2,2.86,MX,05/07/2024
120,san martin,-33.081,-68.4681,10.3,58,0,2.87,AR,05/07/2024
121,asubulaq,49.5583,83.0558,12.38,63,100,1.54,KZ,05/07/2024
122,murghob,38.1702,73.9667,1.57,32,93,3.81,TJ,05/07/2024
123,boa vista,2.8197,-60.6733,25.99,89,75,2.06,BR,05/07/2024
124,menaka,15.9182,2.4022,41.86,16,37,6.32,ML,05/07/2024
125,rio grande,-32.035,-52.0986,23.06,90,98,4.3,BR,05/07/2024
126,taroa,8.7058,171.2275,27.84,81,91,8.33,MH,05/07/2024
127,alofi,-19.0595,-169.9187,25.94,94,75,3.6,NU,05/07/2024
128,praia da vitoria,38.7333,-27.0667,21.14,78,40,8.45,PT,05/07/2024
129,udachny,66.4167,112.4,-0.31,98,83,7.72,RU,05/07/2024
130,rundu,-17.9333,19.7667,32.32,19,2,2.05,NA,05/07/2024
131,sandnessjoen,66.0217,12.6316,13.29,47,20,1.54,NO,05/07/2024
132,zouerate,22.7187,-12.4521,39.81,6,97,3.62,MR,05/07/2024
133,grand gaube,-20.0064,57.6608,25.22,75,0,4.02,MU,05/07/2024
134,ribeira grande,38.5167,-28.7,19.32,94,40,7.6,PT,05/07/2024
135,hawaiian paradise park,19.5933,-154.9731,20.57,97,100,1.54,US,05/07/2024
136,alice springs,-23.7,133.8833,12.75,71,100,0.0,AU,05/07/2024
137,kuala belait,4.5833,114.1833,27.09,88,100,2.75,BN,05/07/2024
138,polyarnyy,69.1989,33.4478,-0.83,69,95,6.87,RU,05/07/2024
139,canutama,-6.5339,-64.3831,31.03,62,100,1.54,BR,05/07/2024
140,namsos,64.4662,11.4957,8.95,93,75,0.0,NO,05/07/2024
141,new norfolk,-42.7826,147.0587,11.72,87,100,0.45,AU,05/07/2024
142,nuku'alofa,-21.1333,-175.2,24.19,94,20,1.03,TO,05/07/2024
143,ushuaia,-54.8,-68.3,1.81,87,0,1.54,AR,05/07/2024
144,nova sintra,14.8667,-24.7167,24.4,70,2,5.76,CV,05/07/2024
145,cranbrook,49.4999,-115.7688,4.91,81,100,1.03,CA,05/07/2024
146,college,64.8569,-147.8028,2.32,89,75,3.09,US,05/07/2024
147,gornozavodsk,58.3758,58.3211,3.37,63,100,0.49,RU,05/07/2024
148,emerald,-23.5333,148.1667,19.43,79,0,4.15,AU,05/07/2024
149,amahai,-3.3333,128.9167,25.89,89,100,1.14,ID,05/07/2024
150,babor - ville,36.4899,5.5393,23.56,67,84,4.78,DZ,05/07/2024
151,egilsstadir,65.2653,-14.3948,10.95,46,40,8.23,IS,05/07/2024
152,atafu village,-8.5421,-172.5159,29.4,77,48,5.19,TK,05/07/2024
153,zhezqazghan,47.7833,67.7667,19.32,42,20,5.0,KZ,05/07/2024
154,port elizabeth,-33.918,25.5701,23.39,91,75,9.26,ZA,05/07/2024
155,genhe,50.7833,121.5167,11.47,45,98,1.74,CN,05/07/2024
156,west island,-12.1568,96.8225,26.99,78,40,4.63,CC,05/07/2024
157,fengxiang,47.5833,130.8333,9.23,44,5,1.74,CN,05/07/2024
158,kavaratti,10.5669,72.642,30.36,67,9,4.38,IN,05/07/2024
159,kenora,49.8167,-94.4337,14.54,47,75,8.23,CA,05/07/2024
160,tarauaca,-8.1614,-70.7656,29.66,67,100,1.2,BR,05/07/2024
161,aoulef,26.9667,1.0833,40.22,5,3,6.12,DZ,05/07/2024
162,whitehorse,60.7161,-135.0538,0.43,80,40,5.14,CA,05/07/2024
163,port mathurin,-19.6833,63.4167,25.87,66,91,12.41,MU,05/07/2024
164,okanagan,50.3639,-119.35,9.04,58,100,1.92,CA,05/07/2024
165,makurazaki,31.2667,130.3167,17.44,74,100,5.91,JP,05/07/2024
166,zapata,26.9073,-99.2714,28.06,78,100,2.57,US,05/07/2024
167,bonga,7.2833,36.2333,21.67,78,99,1.38,ET,05/07/2024
168,stanley,54.868,-1.6985,14.88,78,75,3.09,GB,05/07/2024
169,salem,11.65,78.1667,34.01,42,100,3.36,IN,05/07/2024
170,mammoth lakes,37.6485,-118.9721,8.4,14,0,5.66,US,05/07/2024
171,luanda,-8.8368,13.2343,32.0,75,20,7.72,AO,05/07/2024
172,yarmouth,41.7057,-70.2286,21.19,78,0,4.63,US,05/07/2024
173,bandarbeyla,9.4942,50.8122,29.6,76,2,5.41,SO,05/07/2024
174,hamilton,39.1834,-84.5333,22.26,89,100,4.12,US,05/07/2024
175,tazovsky,67.4667,78.7,-12.21,98,43,2.42,RU,05/07/2024
176,puerto baquerizo moreno,-0.9,-89.6,25.55,83,40,4.12,EC,05/07/2024
177,talnakh,69.4865,88.3972,-5.44,95,97,2.45,RU,05/07/2024
178,smithers,54.7804,-127.1743,1.18,80,75,1.03,CA,05/07/2024
179,pionerskiy,54.9508,20.2275,11.19,66,0,7.21,RU,05/07/2024
180,kidal,18.4411,1.4078,40.58,6,100,5.75,ML,05/07/2024
181,fort st. john,56.2499,-120.8529,5.94,45,75,6.17,CA,05/07/2024
182,constantia,44.1833,28.65,24.38,77,99,7.54,RO,05/07/2024
183,igarka,67.4667,86.5833,-5.55,84,99,5.81,RU,05/07/2024
184,rongelap,11.1635,166.8941,27.78,75,99,8.44,MH,05/07/2024
185,avarua,-21.2078,-159.775,27.03,94,75,3.09,CK,05/07/2024
186,ararat,39.8317,44.7049,15.19,43,76,1.25,AM,05/07/2024
187,geraldton,-28.7667,114.6,14.23,82,0,2.57,AU,05/07/2024
188,chonchi,-42.6128,-73.8092,7.29,91,99,0.94,CL,05/07/2024
189,itamaraca,-7.7478,-34.8256,28.03,70,100,3.22,BR,05/07/2024
190,codrington,-38.2667,141.9667,8.69,92,0,3.34,AU,05/07/2024
191,taos,36.4072,-105.5731,10.31,25,0,7.15,US,05/07/2024
192,alo,7.4178,6.7371,34.71,47,93,3.54,NG,05/07/2024
193,carrizo springs,28.5219,-99.8606,24.97,100,100,2.57,US,05/07/2024
194,tura,25.5198,90.2201,23.88,67,6,1.6,IN,05/07/2024
195,baiao,-2.7906,-49.6717,33.64,45,100,2.03,BR,05/07/2024
196,ancud,-41.8697,-73.8203,7.19,79,95,1.91,CL,05/07/2024
197,vilyuchinsk,52.9306,158.4028,1.63,88,85,1.01,RU,05/07/2024
198,tsiombe,-25.3,45.4833,23.05,79,0,5.54,MG,05/07/2024
199,arteche,12.2645,125.4048,26.5,83,100,1.67,PH,05/07/2024
200,cidade velha,14.9167,-23.6167,32.26,31,0,2.57,CV,05/07/2024
201,port hedland,-20.3167,118.5667,22.03,83,0,2.06,AU,05/07/2024
202,mermoz boabab,14.7065,-17.4758,29.31,69,0,3.09,SN,05/07/2024
203,illizi,26.4833,8.4667,41.89,11,99,4.56,DZ,05/07/2024
204,carnarvon,-24.8667,113.6333,22.17,63,3,7.11,AU,05/07/2024
205,bonthe,7.5264,-12.505,30.58,69,97,3.86,SL,05/07/2024
206,peruibe,-24.32,-46.9983,31.65,42,2,2.37,BR,05/07/2024
207,pudasjarvi,65.3833,26.9167,1.21,43,100,5.39,FI,05/07/2024
208,uturoa,-16.7333,-151.4333,27.76,77,34,7.72,PF,05/07/2024
209,lata,40.1629,-8.3327,24.95,46,100,3.44,PT,05/07/2024
210,marsa alam,25.0757,34.8918,25.55,44,0,5.62,EG,05/07/2024
211,parvatipuram,18.7833,83.4333,29.66,72,11,3.78,IN,05/07/2024
212,maxixe,-23.8597,35.3472,27.9,61,20,3.13,MZ,05/07/2024
213,shingu,33.7333,135.9833,16.39,80,100,2.36,JP,05/07/2024
214,fraijanes,14.4653,-90.4408,21.98,83,75,0.0,GT,05/07/2024
215,zarghun shahr,32.8473,68.4457,21.08,29,2,0.85,AF,05/07/2024
216,st. john's,47.5649,-52.7093,9.04,90,100,3.09,CA,05/07/2024
217,maracaju,-21.6144,-55.1683,32.26,34,19,8.17,BR,05/07/2024
218,twon-brass,4.3151,6.2418,26.2,85,100,3.16,NG,05/07/2024
219,nantai,40.9241,122.8044,14.65,42,0,1.31,CN,05/07/2024
220,langepas,61.2544,75.2124,3.63,98,100,3.3,RU,05/07/2024
221,bealanana,-14.55,48.7333,17.82,91,15,2.87,MG,05/07/2024
222,ternate,0.8,127.4,27.55,81,85,2.11,ID,05/07/2024
223,ilulissat,69.2167,-51.1,-4.99,54,75,4.63,GL,05/07/2024
224,lebu,-37.6167,-73.65,10.1,72,77,2.26,CL,05/07/2024
225,tosontsengel,48.7567,98.2839,11.91,51,100,2.85,MN,05/07/2024
226,nogliki,51.8333,143.1667,-2.03,95,94,2.68,RU,05/07/2024
227,muisne,0.6,-80.0333,26.86,85,100,6.43,EC,05/07/2024
228,monticello,45.3055,-93.7941,15.07,92,40,5.66,US,05/07/2024
229,el alto,-4.2714,-81.2147,22.81,63,93,6.88,PE,05/07/2024
230,meulaboh,4.1363,96.1285,25.97,94,100,3.22,ID,05/07/2024
231,sanya,18.2431,109.505,28.09,83,0,2.0,CN,05/07/2024
232,midvagur,62.0511,-7.1939,10.46,71,75,5.66,FO,05/07/2024
233,sitka,57.0531,-135.33,6.94,70,75,4.63,US,05/07/2024
234,aasiaat,68.7098,-52.8699,-5.71,69,100,1.66,GL,05/07/2024
235,ankazoabo,-22.2833,44.5167,24.64,43,0,2.68,MG,05/07/2024
236,quellon,-43.1167,-73.6167,6.26,83,99,3.64,CL,05/07/2024
237,port lincoln,-34.7333,135.8667,14.79,83,40,6.45,AU,05/07/2024
238,bridgewater,44.3835,-64.5155,18.15,65,11,4.12,CA,05/07/2024
239,sittwe,20.15,92.9,29.25,74,3,6.36,MM,05/07/2024
240,lodwar,3.1191,35.5973,33.28,40,50,5.04,KE,05/07/2024
241,soio,-6.1349,12.3689,28.5,75,93,5.8,AO,05/07/2024
242,kapenguria,1.2511,35.0895,19.01,78,42,1.32,KE,05/07/2024
243,debark',13.1561,37.8981,23.13,15,44,2.79,ET,05/07/2024
244,fortaleza,-3.7227,-38.5247,31.71,87,75,6.69,BR,05/07/2024
245,brisas de zicatela,15.8369,-97.0419,27.29,74,0,1.03,MX,05/07/2024
246,magistral'nyy,56.1725,107.4458,7.98,37,54,2.46,RU,05/07/2024
247,zara,44.1197,15.2422,20.34,68,20,6.17,HR,05/07/2024
248,khanty-mansiysk,61.0042,69.0019,6.06,52,0,7.0,RU,05/07/2024
249,sola,-13.8833,167.55,26.63,69,98,9.03,VU,05/07/2024
250,neklyudovo,56.4114,43.9814,3.61,97,100,6.77,RU,05/07/2024
251,ayr,55.4627,-4.6339,16.1,63,75,3.6,GB,05/07/2024
252,tyuratam,45.6507,63.3156,26.15,33,87,3.04,KZ,05/07/2024
253,dunedin,-45.8742,170.5036,8.22,86,45,2.43,NZ,05/07/2024
254,gamba,-2.65,10.0,29.08,76,100,4.01,GA,05/07/2024
255,kudahuvadhoo,2.6708,72.8944,29.72,77,88,4.6,MV,05/07/2024
256,polatli,39.5772,32.1413,19.41,22,77,1.37,TR,05/07/2024
257,yarkovo,57.4028,67.0786,7.16,49,22,3.97,RU,05/07/2024
258,gadzhiyevo,69.2551,33.3362,-0.68,69,96,6.92,RU,05/07/2024
259,viransehir,37.2353,39.7631,18.63,44,100,3.07,TR,05/07/2024
260,brookings,44.3114,-96.7984,13.95,76,40,9.77,US,05/07/2024
261,laguna,38.421,-121.4238,13.86,81,0,0.0,US,05/07/2024
262,isla vista,34.4133,-119.861,19.61,70,0,0.0,US,05/07/2024
263,howard springs,-12.497,131.047,26.95,95,3,2.2,AU,05/07/2024
264,ar ruways,24.1103,52.7306,31.73,57,0,4.21,AE,05/07/2024
265,iquique,-20.2208,-70.1431,19.02,73,59,1.93,CL,05/07/2024
266,charters towers,-20.1,146.2667,19.08,90,48,4.02,AU,05/07/2024
267,boguchany,58.3814,97.4531,2.66,75,42,0.27,RU,05/07/2024
268,khilok,51.3674,110.4676,6.41,87,98,6.32,RU,05/07/2024
269,cidreira,-30.1811,-50.2056,26.97,61,38,1.55,BR,05/07/2024
270,greymouth,-42.4667,171.2,4.53,78,0,2.73,NZ,05/07/2024
271,puerto san jose,13.9256,-90.8244,28.03,78,75,0.0,GT,05/07/2024
272,siwa oasis,29.2041,25.5195,29.09,16,0,3.06,EG,05/07/2024
273,petropavlovsk-kamchatsky,53.0452,158.6483,0.81,78,40,3.58,RU,05/07/2024
274,kailua-kona,19.6406,-155.9956,23.98,90,100,2.57,US,05/07/2024
275,lautoka,-17.6167,177.4667,24.92,83,75,2.06,FJ,05/07/2024
276,nadym,65.5333,72.5167,-2.24,83,99,7.66,RU,05/07/2024
277,nairn,57.5809,-3.8797,13.85,77,40,4.12,GB,05/07/2024
278,margate,51.3813,1.3862,18.95,72,0,3.26,GB,05/07/2024
279,vila velha,-20.3297,-40.2925,29.98,99,75,2.57,BR,05/07/2024
280,krotovka,53.2858,51.1686,20.57,53,97,9.17,RU,05/07/2024
281,kovernino,57.1253,43.8142,2.49,90,100,5.48,RU,05/07/2024
282,portland,45.5234,-122.6762,8.78,89,100,1.79,US,05/07/2024
283,saldanha,-33.0117,17.9442,18.03,88,55,4.47,ZA,05/07/2024
284,las matas de santa cruz,19.6712,-71.5047,29.65,65,44,1.33,DO,05/07/2024
285,velikiye luki,56.34,30.5452,8.28,43,95,4.87,RU,05/07/2024
286,kerikeri,-35.2268,173.9474,11.62,92,31,4.02,NZ,05/07/2024
287,mejit,10.2753,170.8646,27.96,75,100,8.53,MH,05/07/2024
288,wynyard,-41.0,145.7167,11.09,88,100,2.88,AU,05/07/2024
289,cabo san lucas,22.8909,-109.9124,24.17,64,100,1.29,MX,05/07/2024
290,namibe,-15.1961,12.1522,25.04,64,30,7.85,AO,05/07/2024
291,plouay,47.9167,-3.3333,20.18,59,75,5.66,FR,05/07/2024
292,porbandar,21.6422,69.6093,28.79,76,0,7.1,IN,05/07/2024
293,buka,40.8108,69.1986,23.33,50,40,3.88,UZ,05/07/2024
294,bosobolo,4.1833,19.9,33.16,38,93,2.45,CD,05/07/2024
295,cururupu,-1.8283,-44.8683,33.11,48,57,2.84,BR,05/07/2024
296,nueva villa de padilla,24.0167,-98.7833,32.42,63,100,2.48,MX,05/07/2024
297,saiha,22.4833,92.9667,22.77,83,100,0.8,IN,05/07/2024
298,shancheng,34.7953,116.0817,16.11,62,29,3.52,CN,05/07/2024
299,opuwo,-18.0607,13.84,31.79,16,5,3.82,NA,05/07/2024
300,kapa'a,22.0752,-159.319,23.18,79,75,7.2,US,05/07/2024
301,at taj,24.2049,23.2857,32.98,9,30,2.77,LY,05/07/2024
302,hellin,38.5106,-1.701,24.38,27,62,3.73,ES,05/07/2024
303,berezovyy,51.6667,135.7,4.82,61,6,1.7,RU,05/07/2024
304,fale old settlement,-9.3852,-171.2468,29.31,76,95,3.76,TK,05/07/2024
305,van wert,40.8695,-84.5841,20.51,83,75,4.12,US,05/07/2024
306,cartaxo,39.1602,-8.7874,27.57,35,96,0.89,PT,05/07/2024
307,kenai,60.5544,-151.2583,2.3,100,0,3.09,US,05/07/2024
308,hinton,53.4001,-117.5857,6.1,81,100,1.64,CA,05/07/2024
309,inhambane,-23.865,35.3833,27.99,61,20,3.13,MZ,05/07/2024
310,tazacorte,28.629,-17.9293,23.97,79,20,4.12,ES,05/07/2024
311,iskateley,67.6803,53.1512,-6.1,83,83,7.6,RU,05/07/2024
312,mhamid,29.82,-5.72,35.7,7,100,2.17,MA,05/07/2024
313,safi,32.1667,-8.8333,31.9,15,99,7.28,MA,05/07/2024
314,tindouf,27.6711,-8.1474,38.25,5,40,2.06,DZ,05/07/2024
315,concepcion de la sierra,-27.9831,-55.5203,26.62,61,98,4.84,AR,05/07/2024
316,xining,36.6167,101.7667,13.86,40,58,0.28,CN,05/07/2024
317,sinop,41.7711,34.8709,12.24,66,2,2.46,TR,05/07/2024
318,kristiansund,63.1115,7.732,11.03,93,75,5.66,NO,05/07/2024
319,bubaque,11.2833,-15.8333,26.36,70,11,3.83,GW,05/07/2024
320,mel'nikovo,56.5558,84.085,12.36,59,100,2.24,RU,05/07/2024
321,pisco,-13.7,-76.2167,20.03,88,40,2.06,PE,05/07/2024
322,milici,44.1711,19.0903,18.65,88,100,0.94,BA,05/07/2024
323,nabire,-3.3667,135.4833,24.96,93,100,1.72,ID,05/07/2024
324,lodja,-3.4833,23.4333,35.06,34,48,1.75,CD,05/07/2024
325,las khorey,11.1595,48.1967,31.02,73,72,2.52,SO,05/07/2024
326,sinabang,2.4803,96.3801,26.91,82,96,1.11,ID,05/07/2024
327,veraval,20.9,70.3667,28.49,82,0,7.14,IN,05/07/2024
328,axim,4.8699,-2.2405,30.42,67,100,3.17,GH,05/07/2024
329,qarazhal,48.0078,70.7903,14.59,65,74,3.25,KZ,05/07/2024
330,beyneu,45.3167,55.2,20.55,54,100,11.25,KZ,05/07/2024
331,xiazhuang,34.9161,118.6389,13.51,43,0,2.22,CN,05/07/2024
332,dudinka,69.4058,86.1778,-5.18,94,97,3.13,RU,05/07/2024
333,kormilovka,55.0026,74.1028,9.71,86,23,3.15,RU,05/07/2024
334,mahanoro,-19.9,48.8,23.31,83,41,3.31,MG,05/07/2024
335,huaicheng,23.9051,112.1931,22.84,96,100,0.48,CN,05/07/2024
336,warrnambool,-38.3833,142.4833,10.35,88,4,3.09,AU,05/07/2024
337,kavieng,-2.5744,150.7967,28.1,80,100,3.54,PG,05/07/2024
338,soure,-0.7167,-48.5233,26.57,85,100,3.19,BR,05/07/2024
339,vytegra,61.0064,36.4481,2.42,53,100,1.34,RU,05/07/2024
340,ballina,-28.8667,153.5667,15.99,64,73,5.64,AU,05/07/2024
341,sungai penuh,-2.0833,101.3833,19.96,99,95,0.94,ID,05/07/2024
342,jumla,29.2747,82.1838,8.99,90,73,1.81,NP,05/07/2024
343,khamis mushait,18.3064,42.7292,26.34,34,20,6.17,SA,05/07/2024
344,aioun,16.6614,-9.6149,43.51,4,0,6.76,MR,05/07/2024
345,tibanbang,6.6315,126.1055,27.08,80,100,3.43,PH,05/07/2024
346,kolonia,50.9333,6.95,19.91,70,40,3.09,DE,05/07/2024
347,podporozh'ye,60.9112,34.1706,3.14,67,100,0.64,RU,05/07/2024
348,behshahr,36.6923,53.5526,18.97,86,100,1.17,IR,05/07/2024
349,novodvinsk,64.4165,40.8122,0.99,34,99,2.84,RU,05/07/2024
350,laminusa,5.5549,120.9136,28.9,72,86,0.83,PH,05/07/2024
351,gizo,-8.103,156.8419,27.27,85,99,2.92,SB,05/07/2024
352,lewistown,40.5992,-77.5714,21.08,80,100,0.0,US,05/07/2024
353,naberezhnyye chelny,55.7561,52.4289,5.59,94,100,5.82,RU,05/07/2024
354,gordonvale,-17.0936,145.7842,24.88,93,50,1.74,AU,05/07/2024
355,fortuna,40.5982,-124.1573,7.77,98,0,3.09,US,05/07/2024
356,mabaruma,8.2,-59.7833,32.67,48,91,3.29,GY,05/07/2024
357,sugarcreek,41.4215,-79.8812,23.73,56,0,0.0,US,05/07/2024
358,saint marys,30.7305,-81.5465,29.01,69,0,4.12,US,05/07/2024
359,rabaul,-4.1967,152.1721,27.16,82,100,1.62,PG,05/07/2024
360,tougan,13.0667,-3.0667,37.61,22,100,5.11,BF,05/07/2024
361,aleg,17.0481,-13.9209,44.23,5,0,4.21,MR,05/07/2024
362,happy valley-goose bay,53.3168,-60.3315,11.17,54,75,4.12,CA,05/07/2024
363,nybro,56.7446,15.9071,11.45,35,2,2.99,SE,05/07/2024
364,kampene,-3.6,26.6667,29.11,58,95,0.64,CD,05/07/2024
365,nikel,69.4128,30.222,1.1,74,18,4.68,RU,05/07/2024
366,ust-nera,64.5667,143.2,-1.7,91,61,2.02,RU,05/07/2024
367,luderitz,-26.6481,15.1594,19.26,68,2,6.01,NA,05/07/2024
368,tofol,5.3248,163.0078,28.1,83,99,6.93,FM,05/07/2024
369,letlhakane,-21.4167,25.5833,30.66,21,0,3.13,BW,05/07/2024
370,paris,48.8534,2.3488,21.09,52,40,6.17,FR,05/07/2024
371,chengde,40.9725,117.9361,15.01,34,24,1.1,CN,05/07/2024
372,enewetak,11.3474,162.3373,28.0,78,88,7.66,MH,05/07/2024
373,krasnyy oktyabr',56.1167,38.8833,6.3,52,100,4.72,RU,05/07/2024
374,selkirk,50.1436,-96.8845,17.88,48,100,4.92,CA,05/07/2024
375,mount gambier,-37.8333,140.7667,9.45,97,12,2.07,AU,05/07/2024
376,revda,56.801,59.9303,4.53,89,100,1.17,RU,05/07/2024
377,timbuktu,16.7735,-3.0074,41.61,10,71,3.54,ML,05/07/2024
378,ryotsu-minato,38.0833,138.4333,10.71,91,100,3.1,JP,05/07/2024
379,prado,-17.3411,-39.2208,28.67,67,3,3.99,BR,05/07/2024
380,sorong,-0.8833,131.25,26.09,86,100,2.26,ID,05/07/2024
381,papao,-17.75,-149.55,24.82,76,34,8.9,PF,05/07/2024
382,lakatoro,-16.0999,167.4164,23.06,82,13,2.86,VU,05/07/2024
383,belmonte,-15.8631,-38.8828,29.21,61,3,4.39,BR,05/07/2024
384,hastings,50.8552,0.5729,20.5,72,0,3.42,GB,05/07/2024
385,taco pozo,-25.6167,-63.2833,26.33,71,100,1.39,AR,05/07/2024
386,la passe,45.5549,-0.8967,18.13,81,30,6.31,FR,05/07/2024
387,grimmen,54.1121,13.0405,12.21,64,79,5.42,DE,05/07/2024
388,vorgashor,67.5833,63.95,-6.22,80,73,3.08,RU,05/07/2024
389,mthatha,-31.5889,28.7844,31.31,19,0,2.06,ZA,05/07/2024
390,vyazemskiy,47.5378,134.7525,3.72,54,0,0.19,RU,05/07/2024
391,tulagi,-9.0996,160.1476,28.67,78,100,4.28,SB,05/07/2024
392,meadow lake,34.8014,-106.5436,15.93,31,0,5.36,US,05/07/2024
393,nar'yan-mar,67.6713,53.087,-6.05,83,84,7.6,RU,05/07/2024
394,cacule,-14.5033,-42.2222,31.24,34,5,5.08,BR,05/07/2024
395,kapuskasing,49.4169,-82.4331,13.05,54,20,3.09,CA,05/07/2024
396,puerto quijarro,-17.7833,-57.7667,35.41,28,23,4.1,BO,05/07/2024
397,tokar,18.4254,37.729,30.1,41,0,6.08,SD,05/07/2024
398,guasdualito,7.2424,-70.7324,30.98,70,20,1.54,VE,05/07/2024
399,hadibu,12.65,54.0333,30.34,71,14,1.64,YE,05/07/2024
400,mar del plata,-38.0023,-57.5575,17.01,85,75,6.69,AR,05/07/2024
401,westport,41.1415,-73.3579,23.97,46,0,5.14,US,05/07/2024
402,ad dilam,23.9915,47.1627,38.23,12,10,4.55,SA,05/07/2024
403,labrador city,52.9463,-66.9114,5.1,60,75,4.92,CA,05/07/2024
404,merizo village,13.2658,144.6691,27.85,89,100,5.59,GU,05/07/2024
405,marand,38.4329,45.7749,14.87,49,86,5.68,IR,05/07/2024
406,kiunga,-6.1219,141.2906,23.98,100,100,0.8,PG,05/07/2024
407,necochea,-38.5473,-58.7368,16.93,75,79,7.2,AR,05/07/2024
408,shenjiamen,29.9576,122.298,16.66,82,47,0.73,CN,05/07/2024
409,chui,-33.6971,-53.4616,20.36,98,100,4.08,UY,05/07/2024
410,abalak,58.1286,68.5944,7.97,38,32,3.96,RU,05/07/2024
411,xilin hot,43.9667,116.0333,15.26,18,32,2.16,CN,05/07/2024
412,west bay,19.3667,-81.4167,30.04,74,40,4.63,KY,05/07/2024
413,kalamnuri,19.6667,77.3333,38.16,15,0,5.13,IN,05/07/2024
414,black point,-34.6187,137.8972,15.94,76,0,4.31,AU,05/07/2024
415,sai buri,6.7013,101.6168,28.39,74,74,1.2,TH,05/07/2024
416,veszto,46.9167,21.2667,21.32,75,97,5.0,HU,05/07/2024
417,lompoc,34.6391,-120.4579,16.58,79,20,5.36,US,05/07/2024
418,lazaro cardenas,17.9583,-102.2,26.82,58,97,1.8,MX,05/07/2024
419,la serena,-29.9078,-71.2542,15.73,55,0,2.57,CL,05/07/2024
420,upington,-28.4478,21.2561,33.21,12,0,6.69,ZA,05/07/2024
421,ocean shores,46.9737,-124.1563,10.53,84,19,2.24,US,05/07/2024
422,ulladulla,-35.35,150.4667,14.58,89,100,3.03,AU,05/07/2024
423,ourem,39.6417,-8.5919,26.03,42,100,0.59,PT,05/07/2024
424,yung shue wan,22.2333,114.1167,26.68,83,100,6.41,HK,05/07/2024
425,maranding,7.9248,123.7715,24.17,85,74,1.25,PH,05/07/2024
426,san juanito,28.0,-107.5833,14.94,14,82,4.1,MX,05/07/2024
427,burumburum,11.3911,8.7234,39.64,18,70,4.0,NG,05/07/2024
428,ardestan,33.3761,52.3694,24.07,24,0,7.95,IR,05/07/2024
429,vilyuysk,63.7553,121.6247,2.78,85,85,4.47,RU,05/07/2024
430,sao paulo de olivenca,-3.3783,-68.8725,30.47,67,97,1.37,BR,05/07/2024
431,newton,42.337,-71.2092,23.38,48,0,4.63,US,05/07/2024
432,palu,-0.8917,119.8707,25.2,100,99,0.78,ID,05/07/2024
433,awjilah,29.1081,21.2869,30.55,13,6,1.57,LY,05/07/2024
434,santiago de cuba,20.0247,-75.8219,30.06,66,20,0.51,CU,05/07/2024
435,pandan,14.0453,124.1694,27.22,81,37,3.29,PH,05/07/2024
436,oulainen,64.2667,24.8,3.23,32,100,5.56,FI,05/07/2024
437,andergrove,-21.0833,149.1833,19.71,81,21,6.6,AU,05/07/2024
438,yaren,-0.5472,166.916,28.71,73,35,3.27,NR,05/07/2024
439,mukalla,14.5425,49.1242,29.86,70,32,2.49,YE,05/07/2024
440,sirpur,19.4833,79.6,28.37,53,46,3.92,IN,05/07/2024
441,saliste,45.7963,23.8868,21.56,46,40,7.72,RO,05/07/2024
442,kirakira,-10.4544,161.9205,26.52,88,100,2.68,SB,05/07/2024
443,vila franca do campo,37.7167,-25.4333,18.27,99,81,5.49,PT,05/07/2024
444,ngaoundere,7.3167,13.5833,31.22,27,100,1.72,CM,05/07/2024
445,metlili chaamba,32.2667,3.6333,33.52,12,32,2.06,DZ,05/07/2024
446,lang son,21.8333,106.7333,23.47,89,100,1.57,VN,05/07/2024
447,tolanaro,-25.0319,46.9987,25.04,78,40,5.14,MG,05/07/2024
448,schweizer-reneke,-27.1887,25.3293,24.9,16,0,3.34,ZA,05/07/2024
449,mawu,29.5923,107.3139,18.35,91,100,0.91,CN,05/07/2024
450,los alamos,35.8881,-106.307,12.3,23,0,4.63,US,05/07/2024
451,zabol,32.25,67.25,21.86,29,1,3.79,AF,05/07/2024
452,biryusinsk,55.9634,97.8235,6.0,53,0,1.2,RU,05/07/2024
453,vershino-darasunskiy,52.35,115.5167,13.75,45,88,2.72,RU,05/07/2024
454,puerto el triunfo,13.2833,-88.55,28.51,55,95,1.13,SV,05/07/2024
455,nemuro,43.3236,145.575,3.16,94,100,6.98,JP,05/07/2024
456,pontes e lacerda,-15.2261,-59.3353,33.32,40,38,3.23,BR,05/07/2024
457,karratha,-20.7377,116.8463,25.99,68,0,2.43,AU,05/07/2024
458,bengkulu,-3.8004,102.2655,25.68,92,94,2.48,ID,05/07/2024
459,mokshan,53.4365,44.6132,18.12,63,100,11.93,RU,05/07/2024
460,zheleznodorozhnyy,55.7503,38.0042,3.23,86,100,4.92,RU,05/07/2024
461,kuta,-8.7233,115.1723,27.97,88,20,5.36,ID,05/07/2024
462,yemva,62.59,50.8594,1.43,47,98,3.08,RU,05/07/2024
463,argo,37.6333,22.7333,22.32,50,99,2.66,GR,05/07/2024
464,anahuac,27.2333,-100.15,27.58,79,96,2.06,MX,05/07/2024
465,raymondville,26.4815,-97.7831,28.86,69,47,4.41,US,05/07/2024
466,al ghayzah,16.2079,52.176,30.97,71,23,7.82,YE,05/07/2024
467,edd,13.9297,41.6925,30.09,70,0,5.06,ER,05/07/2024
468,zhmerynka,49.037,28.112,16.0,72,100,6.3,UA,05/07/2024
469,leeton,-34.5667,146.4,12.83,74,15,2.86,AU,05/07/2024
470,urangan,-25.3,152.9,18.44,95,11,2.68,AU,05/07/2024
471,marsh harbour,26.5412,-77.0636,24.52,67,0,4.74,BS,05/07/2024
472,niafunke,15.9322,-3.9906,42.04,3,33,4.63,ML,05/07/2024
473,toro,4.6117,-76.0814,27.38,85,100,1.04,CO,05/07/2024
474,ndago,-4.6,34.35,21.47,76,96,4.18,TZ,05/07/2024
475,dahlonega,34.5326,-83.9849,25.23,83,36,3.25,US,05/07/2024
476,tabou,4.423,-7.3528,30.12,68,50,2.58,CI,05/07/2024
477,okhotsk,59.3833,143.3,0.69,89,100,2.42,RU,05/07/2024
478,usol'ye-sibirskoye,52.7519,103.6453,6.67,73,56,2.31,RU,05/07/2024
479,osinovo,55.8809,48.881,6.23,97,100,6.57,RU,05/07/2024
480,zhongshu,24.5167,103.7667,16.58,91,100,1.58,CN,05/07/2024
481,blantyre,-15.785,35.0085,25.34,57,40,3.09,MW,05/07/2024
482,tonghae,37.5439,129.1069,9.95,81,100,4.04,KR,05/07/2024
483,barroso,-21.1869,-43.9758,25.1,56,0,3.48,BR,05/07/2024
484,mongo,12.1844,18.693,42.7,5,33,5.51,TD,05/07/2024
485,la punta,-33.1837,-66.3127,19.22,57,5,4.93,AR,05/07/2024
486,rudnichnyy,59.617,52.4703,4.01,59,100,2.19,RU,05/07/2024
487,raduzhny,62.0961,77.475,3.84,94,100,4.45,RU,05/07/2024
488,miri,4.4148,114.0089,27.08,94,40,1.54,MY,05/07/2024
489,tumpat,6.1978,102.171,29.99,74,20,2.57,MY,05/07/2024
490,sur,22.5667,59.5289,34.43,46,51,1.59,OM,05/07/2024
491,oruro,-17.9833,-67.15,10.27,50,5,1.54,BO,05/07/2024
492,dalandzadgad,43.5708,104.425,21.32,15,30,5.74,MN,05/07/2024
493,aleksandrov gay,50.147,48.5704,20.1,40,8,4.78,RU,05/07/2024
494,sainte-anne-des-monts,49.124,-66.4924,6.93,76,97,10.8,CA,05/07/2024
495,koster,-25.863,26.8976,22.61,21,0,3.0,ZA,05/07/2024
496,artvin,41.1667,41.8333,7.34,98,100,1.76,TR,05/07/2024
497,seminole,28.7086,-81.2081,30.72,67,0,3.6,US,05/07/2024
498,san carlos,9.6612,-68.5827,32.68,54,77,1.91,VE,05/07/2024
499,tynda,55.1667,124.7167,9.89,87,100,1.31,RU,05/07/2024
500,lorengau,-2.0226,147.2712,26.73,88,100,3.14,PG,05/07/2024
501,la ronge,55.1001,-105.2842,7.14,76,100,5.14,CA,05/07/2024
502,oltinko'l,40.8011,72.1634,27.84,23,93,2.48,UZ,05/07/2024
503,strezhevoy,60.7333,77.5889,7.76,68,100,5.36,RU,05/07/2024
504,lensk,60.7253,114.9278,2.94,82,97,4.44,RU,05/07/2024
505,vallenar,-28.5708,-70.7581,17.78,36,4,2.25,CL,05/07/2024
506,nahiyat ash shinafiyah,31.5874,44.6602,30.02,12,1,7.83,IQ,05/07/2024
507,mount isa,-20.7333,139.5,21.87,43,77,3.09,AU,05/07/2024
508,kone,-21.0595,164.8658,17.78,88,0,1.26,NC,05/07/2024
509,bunia,1.5667,30.25,26.37,64,41,1.54,CD,05/07/2024
510,rio pardo de minas,-15.6097,-42.5397,25.78,44,70,4.39,BR,05/07/2024
511,al jawf,29.5,38.75,24.61,12,62,5.83,SA,05/07/2024
512,nouadhibou,20.931,-17.0347,23.99,60,0,8.75,MR,05/07/2024
513,cianorte,-23.6633,-52.605,30.25,38,16,5.82,BR,05/07/2024
514,thatta,24.7475,67.9235,30.92,52,0,7.83,PK,05/07/2024
515,azogues,-2.7333,-78.8333,14.97,73,96,2.41,EC,05/07/2024
516,misliyah,17.4599,42.5572,32.62,48,0,4.86,SA,05/07/2024
517,along,28.1667,94.7667,18.43,78,80,0.6,IN,05/07/2024
518,plettenberg bay,-34.0527,23.3716,19.15,70,5,2.37,ZA,05/07/2024
519,lucena,13.9314,121.6172,26.62,88,53,3.16,PH,05/07/2024
520,fisterra,42.9049,-9.2629,21.84,73,100,10.64,ES,05/07/2024
521,tual,-5.6667,132.75,26.83,80,100,2.3,ID,05/07/2024
522,bardai,11.65,7.2333,37.83,23,46,3.48,NG,05/07/2024
523,hobyo,5.3505,48.5268,29.85,71,100,4.65,SO,05/07/2024
524,suksun,57.1431,57.3949,6.12,80,100,2.61,RU,05/07/2024
525,fort bragg,35.139,-79.006,26.57,71,75,4.12,US,05/07/2024
526,ormara,25.2088,64.6357,27.51,84,0,5.0,PK,05/07/2024
527,diamantino,-14.4086,-56.4461,31.17,44,6,2.41,BR,05/07/2024
528,shache,38.4167,77.2406,24.78,17,0,3.42,CN,05/07/2024
529,saint-gaudens,43.0833,0.6667,12.23,97,98,2.99,FR,05/07/2024
530,padang,-0.9492,100.3543,26.03,89,100,1.52,ID,05/07/2024
531,mooloolaba,-26.6833,153.1167,18.92,99,80,1.34,AU,05/07/2024
532,sanctuary point,-35.1114,150.629,14.62,84,100,1.74,AU,05/07/2024
533,ulsteinvik,62.3432,5.8487,13.28,91,100,2.68,NO,05/07/2024
534,buenaventura,3.8801,-77.0312,24.99,97,100,1.8,CO,05/07/2024
535,montefrio,37.3231,-4.009,25.4,35,9,4.06,ES,05/07/2024
536,mangrol,21.1167,70.1167,28.37,82,0,7.24,IN,05/07/2024
537,gallup,35.5281,-108.7426,7.91,31,0,2.57,US,05/07/2024
538,colac,-38.3333,143.5833,12.87,95,1,2.15,AU,05/07/2024
539,zakynthos,37.7914,20.8953,22.62,56,20,2.57,GR,05/07/2024
540,arraial do cabo,-22.9661,-42.0278,29.98,48,0,6.17,BR,05/07/2024
541,seaside,36.6111,-121.8516,13.06,84,0,1.54,US,05/07/2024
542,roma,43.2128,-75.4557,20.05,50,1,0.89,US,05/07/2024
543,conduaga,8.862,117.4893,26.75,81,7,1.52,PH,05/07/2024
544,rawson,-43.3002,-65.1023,14.55,73,99,9.89,AR,05/07/2024
545,lerwick,60.1545,-1.1494,11.0,67,80,3.83,GB,05/07/2024
546,masterton,-40.9597,175.6575,3.82,91,3,0.59,NZ,05/07/2024
547,barra de santo antonio,-9.4047,-35.5072,24.6,83,100,3.05,BR,05/07/2024
548,isangel,-19.55,169.2667,22.76,81,23,5.08,VU,05/07/2024
549,yinchuan,38.4681,106.2731,22.05,11,99,2.39,CN,05/07/2024
550,kirensk,57.7853,108.1119,5.54,55,12,2.24,RU,05/07/2024
551,lys'va,58.1086,57.8053,4.49,70,100,1.73,RU,05/07/2024
552,jamaame,0.0697,42.745,28.05,76,63,6.43,SO,05/07/2024
553,plainville,41.6745,-72.8582,24.1,47,0,4.63,US,05/07/2024
554,nishinoomote,30.7333,131.0,19.72,71,100,9.06,JP,05/07/2024
555,tralee,52.2704,-9.7026,15.14,77,75,1.54,IE,05/07/2024
556,broome,42.2506,-75.833,20.05,53,0,2.57,US,05/07/2024
557,corozal,9.3151,-75.2928,29.04,78,100,3.24,CO,05/07/2024
558,chillicothe,39.3331,-82.9824,22.25,84,75,4.47,US,05/07/2024
559,bismarck,46.8083,-100.7837,12.7,78,75,7.72,US,05/07/2024
560,glazov,58.1394,52.6584,5.9,63,100,3.87,RU,05/07/2024
561,erenhot,43.6475,111.9767,19.86,18,25,4.22,CN,05/07/2024
562,toliara,-23.35,43.6667,23.77,69,0,4.21,MG,05/07/2024
563,zuera,41.8677,-0.7898,20.56,38,4,13.28,ES,05/07/2024
564,aykhal,66.0,111.5,-2.64,95,93,9.0,RU,05/07/2024
565,malakal,9.5334,31.6605,40.24,16,10,2.53,SS,05/07/2024
566,velasco ibarra,-1.05,-79.6167,26.64,81,64,2.95,EC,05/07/2024
567,douglas,41.3,-96.167,18.06,58,0,7.2,US,05/07/2024
568,taro,-8.3862,115.28,24.0,100,88,0.11,ID,05/07/2024
569,lashio,22.9333,97.75,19.95,77,77,0.69,MM,05/07/2024
570,joshimath,30.5667,79.5667,12.39,57,23,3.11,IN,05/07/2024
571,nuuk,64.1835,-51.7216,-0.66,69,0,4.12,GL,05/07/2024
572,bich'vinta,43.1592,40.3378,16.1,89,100,2.94,GE,05/07/2024
573,isola di capo rizzuto,38.96,17.0933,24.55,72,40,10.29,IT,05/07/2024
574,kalaleh,37.3807,55.4916,18.2,94,75,2.06,IR,05/07/2024
575,port saint john's,-31.6229,29.5448,26.45,57,0,4.58,ZA,05/07/2024
576,ketchikan,55.3422,-131.6461,6.86,87,75,3.09,US,05/07/2024
577,grants,35.1473,-107.8514,10.13,20,0,0.0,US,05/07/2024
578,taltal,-25.4,-70.4833,16.55,66,99,1.8,CL,05/07/2024
579,mamuju,-2.6748,118.8885,25.98,91,78,1.65,ID,05/07/2024
580,yeed,4.55,43.0333,30.77,54,100,6.28,SO,05/07/2024
581,north tonawanda,43.0387,-78.8642,20.7,53,0,1.79,US,05/07/2024
582,macaubas,-13.0194,-42.6986,29.79,38,7,2.86,BR,05/07/2024
583,formosa,-26.1775,-58.1781,29.58,50,0,6.08,AR,05/07/2024
