City_ID,City,Lat,Lng,Max Temp,Humidity,Cloudiness,Wind Speed,Country,Date
0,port-aux-francais,-49.35,70.2167,4.59,77,26,14.73,TF,05/07/2024
1,st. john's,47.5649,-52.7093,9.6,89,100,3.09,CA,05/07/2024
2,sitka,57.0531,-135.33,6.94,70,75,5.66,US,05/07/2024
3,preobrazheniye,42.9019,133.9064,3.69,90,99,1.85,RU,05/07/2024
4,rio grande,-32.035,-52.0986,23.06,90,100,5.15,BR,05/07/2024
5,haiku-pauwela,20.9219,-156.3051,22.25,79,20,2.68,US,05/07/2024
6,ribeira grande,38.5167,-28.7,19.32,94,40,6.71,PT,05/07/2024
7,namsos,64.4662,11.4957,8.95,93,75,1.54,NO,05/07/2024
8,adamstown,-25.066,-130.1015,21.57,78,45,5.01,PN,05/07/2024
9,ilulissat,69.2167,-51.1,-4.99,54,75,4.63,GL,05/07/2024
10,bethel,41.3712,-73.414,22.34,49,0,2.06,US,05/07/2024
11,newman,37.3138,-121.0208,11.19,88,34,1.82,US,05/07/2024
12,petropavlovsk-kamchatsky,53.0452,158.6483,0.81,78,40,3.58,RU,05/07/2024
13,sur,22.5667,59.5289,34.52,48,18,1.32,OM,05/07/2024
14,brokopondo,4.75,-55.1667,26.69,85,100,2.84,SR,05/07/2024
15,wailua homesteads,22.0669,-159.378,22.44,83,100,6.69,US,05/07/2024
16,igrim,63.1906,64.4162,0.71,99,100,1.76,RU,05/07/2024
17,dalhart,36.0595,-102.5133,16.93,17,0,6.17,US,05/07/2024
18,bilibino,68.0546,166.4372,-6.68,98,68,0.4,RU,05/07/2024
19,lazaro cardenas,17.9583,-102.2,24.43,69,100,1.16,MX,05/07/2024
20,stanley,54.868,-1.6985,15.28,75,75,2.06,GB,05/07/2024
21,olonkinbyen,70.9221,-8.7187,-0.74,89,13,3.34,SJ,05/07/2024
22,talnakh,69.4865,88.3972,-5.44,94,96,2.4,RU,05/07/2024
23,atafu village,-8.5421,-172.5159,29.58,77,46,5.18,TK,05/07/2024
24,marka,1.7159,44.7717,28.39,80,100,6.32,SO,05/07/2024
25,invercargill,-46.4,168.35,6.12,89,99,2.24,NZ,05/07/2024
26,iranshahr,27.2025,60.6848,39.19,12,0,6.17,IR,05/07/2024
27,morgan city,29.6994,-91.2068,27.78,94,100,4.63,US,05/07/2024
28,namibe,-15.1961,12.1522,25.84,62,29,7.19,AO,05/07/2024
29,kingston,17.997,-76.7936,31.53,66,20,1.54,JM,05/07/2024
30,guerrero negro,27.9769,-114.0611,15.36,77,0,4.58,MX,05/07/2024
31,albany,42.6001,-73.9662,19.27,52,0,0.89,US,05/07/2024
32,klaksvik,62.2266,-6.589,10.51,75,81,8.39,FO,05/07/2024
33,riverside,33.7333,-116.0508,18.84,31,2,0.25,US,05/07/2024
34,chibougamau,49.9168,-74.3659,2.79,81,100,5.66,CA,05/07/2024
35,port alfred,-33.5906,26.891,24.96,59,0,3.5,ZA,05/07/2024
36,touros,-5.1989,-35.4608,30.65,57,62,5.61,BR,05/07/2024
37,codrington,-38.2667,141.9667,9.05,91,0,3.37,AU,05/07/2024
38,bejaia,36.7559,5.0843,19.6,77,75,2.57,DZ,05/07/2024
39,yellowknife,62.456,-114.3525,10.23,72,75,3.09,CA,05/07/2024
40,grytviken,-54.2811,-36.5092,-0.87,77,69,3.4,GS,05/07/2024
41,solnechnyy,50.7214,136.6319,5.57,58,0,1.71,RU,05/07/2024
42,kailua-kona,19.6406,-155.9956,23.98,89,100,2.57,US,05/07/2024
43,bredasdorp,-34.5322,20.0403,18.54,79,93,5.18,ZA,05/07/2024
44,utrik,11.2278,169.8474,27.94,75,99,7.85,MH,05/07/2024
45,enewetak,11.3474,162.3373,28.02,78,95,7.98,MH,05/07/2024
46,urengoy,65.9667,78.3667,-1.39,97,100,5.27,RU,05/07/2024
47,saldanha,-33.0117,17.9442,18.03,86,45,4.72,ZA,05/07/2024
48,nizhniy ingash,56.2,96.53,6.84,53,1,1.52,RU,05/07/2024
49,punta arenas,-53.15,-70.9167,2.06,93,100,3.09,CL,05/07/2024
50,west island,-12.1568,96.8225,27.99,74,40,4.63,CC,05/07/2024
51,prince rupert,54.3161,-130.3201,6.83,88,75,9.26,CA,05/07/2024
52,castillos,-34.1667,-53.8333,20.02,98,100,2.06,UY,05/07/2024
53,mosjoen,65.836,13.1908,13.29,33,0,2.57,NO,05/07/2024
54,yelizovo,53.1873,158.3805,1.56,80,40,2.24,RU,05/07/2024
55,whitehorse,60.7161,-135.0538,0.43,77,40,5.14,CA,05/07/2024
56,mount pearl,47.5166,-52.7813,9.14,89,100,3.09,CA,05/07/2024
57,ushuaia,-54.8,-68.3,1.81,87,0,1.54,AR,05/07/2024
58,waitangi,-43.9535,-176.5597,7.12,54,24,3.32,NZ,05/07/2024
59,nyala,12.05,24.8833,40.24,6,2,6.51,SD,05/07/2024
60,nadi,-17.8,177.4167,25.0,83,75,2.06,FJ,05/07/2024
61,puerto aysen,-45.4,-72.7,1.14,91,60,0.85,CL,05/07/2024
62,baiyin,36.5583,104.2081,19.25,38,100,4.08,CN,05/07/2024
63,nikolayevsk-on-amure,53.1406,140.73,0.12,72,1,2.24,RU,05/07/2024
64,port mathurin,-19.6833,63.4167,25.72,68,88,12.04,MU,05/07/2024
65,sullivan,36.5168,-82.5332,23.68,83,75,1.54,US,05/07/2024
66,sault ste. marie,46.5168,-84.3333,17.9,42,0,2.57,CA,05/07/2024
67,tiksi,71.6872,128.8694,0.23,99,100,7.15,RU,05/07/2024
68,holualoa,19.6228,-155.9522,21.91,89,100,2.57,US,05/07/2024
69,qaqortoq,60.7167,-46.0333,1.45,47,39,1.62,GL,05/07/2024
70,moranbah,-22.0016,148.0466,18.41,85,11,5.54,AU,05/07/2024
71,papatowai,-46.5619,169.4708,9.08,84,99,4.18,NZ,05/07/2024
72,khark,29.2614,50.3306,29.01,70,14,2.06,IR,05/07/2024
73,sabang,5.8933,95.3214,30.22,69,100,2.39,ID,05/07/2024
74,bardai,11.65,7.2333,37.39,24,54,2.77,NG,05/07/2024
75,lebu,-37.6167,-73.65,9.93,69,75,1.73,CL,05/07/2024
76,pyetrykaw,52.1289,28.4921,6.82,78,100,6.63,BY,05/07/2024
77,thompson,55.7435,-97.8558,5.09,75,75,4.12,CA,05/07/2024
78,chernyshevsk,52.5243,117.0174,16.67,36,100,2.3,RU,05/07/2024
79,laguna,38.421,-121.4238,12.75,86,0,0.0,US,05/07/2024
80,edinburgh of the seven seas,-37.0676,-12.3116,15.28,80,67,14.67,SH,05/07/2024
81,zhezqazghan,47.7833,67.7667,21.32,37,20,6.0,KZ,05/07/2024
82,coahuayana de hidalgo,18.7,-103.6583,24.18,38,100,0.39,MX,05/07/2024
83,mandiana,10.6333,-8.6833,37.14,30,88,2.8,GN,05/07/2024
84,yokadouma,3.5167,15.05,32.33,43,100,0.84,CM,05/07/2024
85,fale old settlement,-9.3852,-171.2468,29.33,77,100,3.9,TK,05/07/2024
86,filadelfia,39.9523,-75.1638,24.01,49,75,3.6,US,05/07/2024
87,kaga bandoro,6.9896,19.1874,38.07,25,91,1.41,CF,05/07/2024
88,keflavik,64.0049,-22.5624,4.95,93,100,6.17,IS,05/07/2024
89,nuevo casas grandes,30.4167,-107.9167,15.53,35,33,1.81,MX,05/07/2024
90,susuman,62.7833,148.1667,0.55,75,100,2.24,RU,05/07/2024
91,port elizabeth,-33.918,25.5701,23.39,88,20,8.75,ZA,05/07/2024
92,polyarnyy,69.1989,33.4478,-0.55,69,93,6.49,RU,05/07/2024
93,kapuskasing,49.4169,-82.4331,13.05,54,20,3.09,CA,05/07/2024
94,khorugh,37.4897,71.553,10.79,46,100,0.81,TJ,05/07/2024
95,kuah,6.3265,99.8432,28.99,89,20,1.54,MY,05/07/2024
96,constantia,44.1833,28.65,24.38,69,100,6.41,RO,05/07/2024
97,palapye,-22.546,27.1251,30.31,17,0,3.76,BW,05/07/2024
98,praia da vitoria,38.7333,-27.0667,21.14,78,40,8.42,PT,05/07/2024
99,kalmunai,7.4167,81.8167,29.95,78,9,6.19,LK,05/07/2024
100,iqaluit,63.7506,-68.5145,-4.15,73,20,9.26,CA,05/07/2024
101,ilebo,-4.3167,20.5833,37.67,25,99,1.31,CD,05/07/2024
102,puerto natales,-51.7236,-72.4875,-0.75,86,0,0.0,CL,05/07/2024
103,escanaba,45.7453,-87.0646,17.51,54,0,5.14,US,05/07/2024
104,coquimbo,-29.9533,-71.3436,15.85,55,0,2.57,CL,05/07/2024
105,rondonopolis,-16.4708,-54.6356,30.7,44,0,2.72,BR,05/07/2024
106,sao miguel do iguacu,-25.3481,-54.2378,28.49,37,0,5.06,BR,05/07/2024
107,brisas de zicatela,15.8369,-97.0419,27.29,74,0,1.03,MX,05/07/2024
108,tolanaro,-25.0319,46.9987,25.04,78,40,5.14,MG,05/07/2024
109,krasnoslobodsk,48.7072,44.5714,23.9,28,0,8.0,RU,05/07/2024
110,dongsheng,39.8161,109.9776,17.79,18,0,2.06,CN,05/07/2024
111,carnarvon,-24.8667,113.6333,22.24,62,4,8.53,AU,05/07/2024
112,blackmans bay,-43.0167,147.3167,11.07,87,99,1.67,AU,05/07/2024
113,college,64.8569,-147.8028,1.76,90,75,3.09,US,05/07/2024
114,saipan,15.1355,145.701,28.39,69,75,3.09,MP,05/07/2024
115,dunedin,-45.8742,170.5036,8.22,84,67,0.45,NZ,05/07/2024
116,ruwandiz,36.6163,44.5311,11.93,83,100,5.19,IQ,05/07/2024
117,santa elena de uairen,4.6167,-61.1333,25.63,66,100,1.56,VE,05/07/2024
118,meadow lakes,61.6247,-149.6011,2.33,87,0,1.54,US,05/07/2024
119,longyearbyen,78.2186,15.6401,0.91,75,75,1.54,SJ,05/07/2024
120,turbat,26.0023,63.044,38.36,18,0,9.66,PK,05/07/2024
121,vorgashor,67.5833,63.95,-6.22,80,70,3.23,RU,05/07/2024
122,udachny,66.4167,112.4,-0.31,98,87,7.7,RU,05/07/2024
123,puerto ayora,-0.7393,-90.3518,25.98,98,54,0.89,EC,05/07/2024
124,margaret river,-33.95,115.0667,17.42,52,46,5.14,AU,05/07/2024
125,leua,48.2156,18.6071,21.39,74,100,2.81,SK,05/07/2024
126,vondrozo,-22.8167,47.2833,18.84,95,60,2.19,MG,05/07/2024
127,kijang,35.2442,129.2139,11.85,85,100,8.69,KR,05/07/2024
128,pointe-noire,-4.7761,11.8635,30.04,79,20,6.17,CG,05/07/2024
129,badger,64.8,-147.5333,1.71,91,75,3.09,US,05/07/2024
130,chonchi,-42.6128,-73.8092,6.18,94,100,0.98,CL,05/07/2024
131,sandnessjoen,66.0217,12.6316,13.29,54,20,2.06,NO,05/07/2024
132,weno,7.4515,151.8468,25.97,94,100,0.0,FM,05/07/2024
133,hassi messaoud,31.6804,6.0729,36.92,13,0,3.6,DZ,05/07/2024
134,northam,51.0333,-4.2167,14.66,89,94,2.97,GB,05/07/2024
135,avarua,-21.2078,-159.775,27.03,94,75,3.6,CK,05/07/2024
136,san luis de la loma,17.2706,-100.8939,27.28,58,100,1.1,MX,05/07/2024
137,hamilton,39.1834,-84.5333,21.47,91,100,3.6,US,05/07/2024
138,cill airne,52.05,-9.5167,15.03,72,75,1.54,IE,05/07/2024
139,san patricio,28.017,-97.5169,27.87,81,100,0.6,US,05/07/2024
140,lihue,21.9789,-159.3672,22.77,79,100,6.69,US,05/07/2024
141,hasaki,35.7333,140.8333,20.22,90,100,10.06,JP,05/07/2024
142,box elder,41.5005,-112.8764,5.03,61,3,11.53,US,05/07/2024
143,lata,40.1629,-8.3327,24.4,46,100,2.39,PT,05/07/2024
144,mili,6.0815,171.735,27.9,84,92,9.3,MH,05/07/2024
145,mira monte,34.4336,-119.2851,14.97,77,86,2.55,US,05/07/2024
146,thinadhoo,0.5333,72.9333,29.91,75,27,5.02,MV,05/07/2024
147,leeton,-34.5667,146.4,13.38,66,2,3.1,AU,05/07/2024
148,fort bragg,35.139,-79.006,25.11,75,75,4.12,US,05/07/2024
149,new norfolk,-42.7826,147.0587,11.72,83,100,0.3,AU,05/07/2024
150,nishinoomote,30.7333,131.0,19.78,70,100,9.34,JP,05/07/2024
151,guskhara,23.5,87.75,27.76,65,65,7.37,IN,05/07/2024
152,amurzet,47.6967,131.0981,9.98,41,19,2.04,RU,05/07/2024
153,laascaanood,8.4774,47.3597,31.03,47,100,1.78,SO,05/07/2024
154,portland,45.5234,-122.6762,8.12,90,100,1.34,US,05/07/2024
155,t'aebaek,37.1759,128.9889,4.35,95,99,3.73,KR,05/07/2024
156,huinca renanco,-34.8404,-64.3758,15.11,82,64,3.88,AR,05/07/2024
157,tsetserleg,47.475,101.4542,16.21,35,73,2.66,MN,05/07/2024
158,zakharivka,47.3333,29.75,25.53,40,68,5.0,UA,05/07/2024
159,usogorsk,63.4106,48.6872,-1.3,58,85,3.02,RU,05/07/2024
160,nova sintra,14.8667,-24.7167,24.63,69,2,5.27,CV,05/07/2024
161,isafjordur,66.0755,-23.124,7.02,53,75,3.09,IS,05/07/2024
162,bhongir,17.5108,78.8889,23.61,65,100,9.21,IN,05/07/2024
163,ovria,38.1833,21.7167,25.18,52,77,4.07,GR,05/07/2024
164,chikwawa,-16.0335,34.8009,31.37,36,0,3.01,MW,05/07/2024
165,arawa,-6.2132,155.5367,26.17,92,100,1.1,PG,05/07/2024
166,mount isa,-20.7333,139.5,21.87,43,40,3.6,AU,05/07/2024
167,metro,-5.1131,105.3067,25.45,90,33,1.75,ID,05/07/2024
168,"laikit, laikit ii (dimembe)",1.4792,124.9735,23.47,94,20,0.51,ID,05/07/2024
169,general mosconi,-23.1851,-62.303,30.65,55,32,7.81,AR,05/07/2024
170,wagar,16.1525,36.2032,39.98,9,0,5.53,SD,05/07/2024
171,santa terezinha,-29.9002,-50.0904,25.79,65,9,1.89,BR,05/07/2024
172,easton,40.6884,-75.2207,23.08,41,100,2.06,US,05/07/2024
173,cienfuegos,22.1461,-80.4356,29.08,70,20,1.54,CU,05/07/2024
174,gambiran satu,-8.3939,114.1464,22.74,99,27,1.24,ID,05/07/2024
175,whakatane,-37.9585,176.9854,7.1,94,95,3.75,NZ,05/07/2024
176,ravar,31.2656,56.8055,31.04,12,6,7.75,IR,05/07/2024
177,cidreira,-30.1811,-50.2056,26.08,63,9,1.36,BR,05/07/2024
178,panaba,21.2833,-88.2667,30.39,60,9,6.37,MX,05/07/2024
179,sao vicente,-23.9631,-46.3919,33.48,51,0,1.03,BR,05/07/2024
180,papao,-17.75,-149.55,25.82,79,36,9.27,PF,05/07/2024
181,winslow,35.0242,-110.6974,11.1,24,0,0.0,US,05/07/2024
182,fada,9.5667,8.3,28.13,60,99,3.36,NG,05/07/2024
183,mournies,35.4764,24.0092,23.22,53,0,5.66,GR,05/07/2024
184,gadzhiyevo,69.2551,33.3362,-0.45,70,97,6.59,RU,05/07/2024
185,tidjikja,18.5564,-11.4271,40.86,5,32,3.79,MR,05/07/2024
186,saint-pierre,-21.3393,55.4781,23.82,73,0,11.32,RE,05/07/2024
187,aasiaat,68.7098,-52.8699,-6.34,72,100,1.78,GL,05/07/2024
188,fisterra,42.9049,-9.2629,21.84,73,100,9.73,ES,05/07/2024
189,buala,-8.145,159.5921,26.75,83,100,1.5,SB,05/07/2024
190,jinchang,38.4953,102.1739,21.83,21,68,3.43,CN,05/07/2024
191,kone,-21.0595,164.8658,18.0,86,0,1.1,NC,05/07/2024
192,palmer,42.1584,-72.3287,22.45,45,0,2.57,US,05/07/2024
193,kirensk,57.7853,108.1119,5.54,55,14,2.24,RU,05/07/2024
194,cuito,-12.3833,16.9333,25.04,36,1,2.9,AO,05/07/2024
195,kaspiyskiy,45.3929,47.3707,16.98,35,100,3.28,RU,05/07/2024
196,nicoya,10.1483,-85.452,30.29,65,34,1.66,CR,05/07/2024
197,jamestown,42.097,-79.2353,18.34,47,40,2.57,US,05/07/2024
198,kodiak,57.79,-152.4072,3.73,87,100,3.6,US,05/07/2024
199,salekhard,66.53,66.6019,-5.89,86,62,6.26,RU,05/07/2024
200,belmonte,-15.8631,-38.8828,28.93,65,0,4.65,BR,05/07/2024
201,quibdo,5.6947,-76.6611,25.19,100,75,0.0,CO,05/07/2024
202,cole harbour,44.6724,-63.4751,16.65,60,20,3.6,CA,05/07/2024
203,bucerias,20.75,-105.3333,24.99,83,100,1.03,MX,05/07/2024
204,klyuchi,52.2667,79.1667,14.64,37,100,3.78,RU,05/07/2024
205,pisco,-13.7,-76.2167,20.03,88,40,2.06,PE,05/07/2024
206,nelson bay,-32.7167,152.15,19.44,83,42,0.45,AU,05/07/2024
207,hawaiian paradise park,19.5933,-154.9731,20.57,97,100,1.54,US,05/07/2024
208,mpika,-11.8343,31.4529,23.66,54,26,3.7,ZM,05/07/2024
209,majene,-3.5403,118.9707,25.26,91,88,1.73,ID,05/07/2024
210,taroudant,30.4703,-8.877,34.72,20,67,6.0,MA,05/07/2024
211,san rafael,-34.6177,-68.3301,13.68,63,0,2.09,AR,05/07/2024
212,bageshwar,29.85,79.7667,26.7,30,41,2.0,IN,05/07/2024
213,san juan,-31.5375,-68.5364,17.13,47,1,3.57,AR,05/07/2024
214,port blair,11.6667,92.75,28.02,78,40,1.03,IN,05/07/2024
215,waingapu,-9.6567,120.2641,25.79,79,29,5.37,ID,05/07/2024
216,pervomayskoye,43.919,46.7102,10.72,78,100,4.29,RU,05/07/2024
217,hanceville,34.0607,-86.7675,25.09,89,100,4.04,US,05/07/2024
218,island harbour,50.724,-1.2758,21.2,65,74,2.08,GB,05/07/2024
219,puerto lempira,15.2667,-83.7667,31.08,66,75,3.09,HN,05/07/2024
220,lashio,22.9333,97.75,20.4,75,85,0.33,MM,05/07/2024
221,n'dalatando,-9.2978,14.9116,32.17,34,32,1.82,AO,05/07/2024
222,patterson,37.4716,-121.1297,11.55,88,46,1.52,US,05/07/2024
223,georgetown,5.4112,100.3354,30.97,75,40,2.06,MY,05/07/2024
224,kruisfontein,-34.0033,24.7314,22.16,74,6,4.51,ZA,05/07/2024
225,vilyuchinsk,52.9306,158.4028,1.63,88,84,1.01,RU,05/07/2024
226,santa cruz,-17.8,-63.1667,29.03,70,40,9.77,BO,05/07/2024
227,hermanus,-34.4187,19.2345,17.11,91,92,6.08,ZA,05/07/2024
228,ipu,-4.3222,-40.7108,26.28,72,97,2.98,BR,05/07/2024
229,sona,45.4388,10.8255,16.85,92,75,1.54,IT,05/07/2024
230,ust-nera,64.5667,143.2,-0.98,89,48,2.38,RU,05/07/2024
231,iskateley,67.6803,53.1512,-6.1,83,74,7.6,RU,05/07/2024
232,kaladhungi,29.2833,79.35,30.97,26,0,1.86,IN,05/07/2024
233,anadyr,64.75,177.4833,-6.72,79,75,9.0,RU,05/07/2024
234,kurayoshi,35.4333,133.8167,13.26,93,100,3.96,JP,05/07/2024
235,gamboma,-1.8764,15.8644,36.35,35,97,2.18,CG,05/07/2024
236,teknaf,20.8624,92.3058,28.01,74,0,3.89,BD,05/07/2024
237,ashland,40.8167,-82.2665,21.09,100,17,3.07,US,05/07/2024
238,handan,36.6006,114.4678,20.19,33,2,1.61,CN,05/07/2024
239,alesund,62.4723,6.1549,12.73,92,75,3.6,NO,05/07/2024
240,okha,53.5739,142.9478,-0.42,81,32,4.02,RU,05/07/2024
241,healesville,-37.65,145.5167,11.46,99,6,0.6,AU,05/07/2024
242,ola,59.5833,151.2833,0.08,99,99,2.75,RU,05/07/2024
243,jaguaruna,-28.615,-49.0256,31.25,56,8,1.47,BR,05/07/2024
244,xocali,39.913,46.7903,12.61,96,100,2.3,AZ,05/07/2024
245,urumqi,43.801,87.6005,19.53,46,0,1.0,CN,05/07/2024
246,flying fish cove,-10.4217,105.6791,24.82,100,100,5.66,CX,05/07/2024
247,nantucket,41.2835,-70.0995,20.08,77,0,7.2,US,05/07/2024
248,nizhnesortymskiy,62.4397,71.7603,2.51,100,100,4.34,RU,05/07/2024
249,cradock,-32.1642,25.6192,28.34,18,1,8.68,ZA,05/07/2024
250,luderitz,-26.6481,15.1594,19.48,66,2,6.24,NA,05/07/2024
251,hirara,24.8,125.2833,24.92,83,75,3.6,JP,05/07/2024
252,scottsbluff,41.8666,-103.6672,11.13,42,0,10.28,US,05/07/2024
253,farasan,16.7022,42.1183,29.97,68,0,4.39,SA,05/07/2024
254,magdagachi,53.45,125.8,13.91,30,100,1.33,RU,05/07/2024
255,parabel',58.6978,81.4825,13.28,31,100,6.71,RU,05/07/2024
256,messias,-9.3833,-35.8417,23.84,100,75,3.09,BR,05/07/2024
257,ribadesella,43.4614,-5.0596,17.19,75,1,3.01,ES,05/07/2024
258,hithadhoo,-0.6,73.0833,29.88,74,89,4.24,MV,05/07/2024
259,sisimiut,66.9395,-53.6735,-3.61,64,87,1.16,GL,05/07/2024
260,rio gallegos,-51.6226,-69.2181,3.03,81,40,3.09,AR,05/07/2024
261,tarabha,20.7333,83.65,27.02,66,52,4.14,IN,05/07/2024
262,itoman,26.1247,127.6694,24.01,75,100,3.6,JP,05/07/2024
263,prado,-17.3411,-39.2208,28.61,67,8,3.79,BR,05/07/2024
264,villa gesell,-37.2639,-56.973,16.7,88,100,9.97,AR,05/07/2024
265,valparaiso,-33.0393,-71.6273,12.86,87,100,2.57,CL,05/07/2024
266,saint-philippe,-21.3585,55.7679,23.77,69,72,6.21,RE,05/07/2024
267,gazojak,41.1875,61.4036,32.11,19,100,4.09,TM,05/07/2024
268,sao gabriel da cachoeira,-0.1303,-67.0892,27.89,83,20,1.54,BR,05/07/2024
269,mhamid,29.82,-5.72,35.62,7,100,3.15,MA,05/07/2024
270,coronel dorrego,-38.7187,-61.2873,13.54,84,100,4.74,AR,05/07/2024
271,rikaze,29.25,88.8833,9.3,48,100,4.19,CN,05/07/2024
272,khandud,36.9513,72.318,8.24,53,100,1.76,AF,05/07/2024
273,mongoumba,3.6415,18.5936,39.28,24,98,1.8,CF,05/07/2024
274,shalqar,47.8333,59.6,21.03,27,100,5.05,KZ,05/07/2024
275,freetown,8.484,-13.2299,30.84,66,40,6.17,SL,05/07/2024
276,balabac,7.9868,117.0645,28.51,74,26,3.02,PH,05/07/2024
277,ancud,-41.8697,-73.8203,6.63,83,99,1.57,CL,05/07/2024
278,along,28.1667,94.7667,19.37,75,81,0.44,IN,05/07/2024
279,kangding,30.0513,101.9603,10.38,99,100,1.62,CN,05/07/2024
280,vadso,70.0744,29.7487,0.49,80,40,5.14,NO,05/07/2024
281,wamba,8.9333,8.6,37.29,34,74,2.56,NG,05/07/2024
282,benguela,-12.5763,13.4055,30.59,59,18,4.26,AO,05/07/2024
283,paita,-5.0892,-81.1144,21.06,79,99,6.65,PE,05/07/2024
284,tura,25.5198,90.2201,24.31,65,9,1.76,IN,05/07/2024
285,hoa binh,20.8133,105.3383,25.48,91,100,1.57,VN,05/07/2024
286,lyubinskiy,55.1542,72.6925,12.82,65,21,4.36,RU,05/07/2024
287,olinda,-8.0089,-34.8553,27.85,83,75,6.69,BR,05/07/2024
288,shakawe,-18.3667,21.85,31.65,27,78,3.41,BW,05/07/2024
289,arno,60.1167,18.6333,2.1,58,10,3.62,SE,05/07/2024
290,amarante do maranhao,-5.5667,-46.7422,29.44,55,59,3.9,BR,05/07/2024
291,saudarkrokur,65.7461,-19.6394,7.34,57,100,4.67,IS,05/07/2024
292,siyabuswa,-25.1132,29.0445,28.69,13,0,1.93,ZA,05/07/2024
293,kill devil hills,36.0307,-75.676,26.0,76,0,3.09,US,05/07/2024
294,nizhneudinsk,54.9076,99.0276,6.66,51,0,0.48,RU,05/07/2024
295,lompoc,34.6391,-120.4579,14.41,88,0,5.14,US,05/07/2024
296,iwanai,42.9744,140.5089,4.17,94,100,2.81,JP,05/07/2024
297,ukhta,63.5671,53.6835,-1.91,95,48,4.02,RU,05/07/2024
298,kargasok,59.0556,80.8572,11.65,37,100,7.15,RU,05/07/2024
299,labytnangi,66.6572,66.4183,-5.9,86,36,6.49,RU,05/07/2024
300,greymouth,-42.4667,171.2,4.74,78,0,2.8,NZ,05/07/2024
301,marsa alam,25.0757,34.8918,25.91,44,0,6.63,EG,05/07/2024
302,baniachang,24.5167,91.3667,27.64,61,0,0.64,BD,05/07/2024
303,tremonton,41.7119,-112.1655,6.09,63,100,7.15,US,05/07/2024
304,ta`u,-14.2336,-169.5144,28.8,80,100,4.57,AS,05/07/2024
305,kulhudhuffushi,6.6221,73.07,29.85,73,100,4.84,MV,05/07/2024
306,ca mau,9.1769,105.15,28.56,77,100,1.95,VN,05/07/2024
307,akureyri,65.6835,-18.0878,8.96,49,40,8.23,IS,05/07/2024
308,tralee,52.2704,-9.7026,15.14,72,75,1.54,IE,05/07/2024
309,natal,-5.795,-35.2094,31.36,62,40,6.69,BR,05/07/2024
310,rawson,-43.3002,-65.1023,13.71,75,99,8.99,AR,05/07/2024
311,antonio enes,-16.2325,39.9086,27.98,67,24,4.75,MZ,05/07/2024
312,vila franca do campo,37.7167,-25.4333,19.23,99,86,6.61,PT,05/07/2024
313,nadym,65.5333,72.5167,-2.24,83,99,7.35,RU,05/07/2024
314,inhambane,-23.865,35.3833,27.99,61,20,3.09,MZ,05/07/2024
315,kon tum,14.35,108.0,22.72,90,97,1.15,VN,05/07/2024
316,el granada,37.5027,-122.4694,12.14,87,40,4.12,US,05/07/2024
317,port lincoln,-34.7333,135.8667,14.81,82,37,6.62,AU,05/07/2024
318,ad dilam,23.9915,47.1627,38.23,11,0,5.09,SA,05/07/2024
319,tostado,-29.232,-61.7692,18.88,91,100,2.78,AR,05/07/2024
320,ranong,9.9658,98.6348,24.12,92,100,2.97,TH,05/07/2024
321,mezhova,48.2532,36.7347,21.75,32,45,7.87,UA,05/07/2024
322,queenstown,-31.8976,26.8753,26.58,19,0,6.04,ZA,05/07/2024
323,saltillo,25.4167,-101.0,24.85,21,40,2.24,MX,05/07/2024
324,kalemie,-5.9475,29.1947,26.97,67,59,4.14,CD,05/07/2024
325,kokopo,-4.352,152.2633,26.08,86,93,1.92,PG,05/07/2024
326,howard springs,-12.497,131.047,25.95,94,5,2.05,AU,05/07/2024
327,boden,65.8252,21.6886,4.0,77,100,3.05,SE,05/07/2024
328,winburg,-28.518,27.0093,24.99,14,0,4.21,ZA,05/07/2024
329,revda,56.801,59.9303,6.35,79,100,2.03,RU,05/07/2024
330,musoma,-1.5,33.8,24.43,79,100,2.65,TZ,05/07/2024
331,pama,11.2497,0.7075,35.62,37,100,2.07,BF,05/07/2024
332,saint-francois,46.4154,3.9054,14.82,86,75,7.72,FR,05/07/2024
333,conception bay south,47.4999,-52.9981,9.47,91,100,3.32,CA,05/07/2024
334,nova vicosa,-17.8919,-39.3719,28.64,68,40,3.12,BR,05/07/2024
335,dickinson,29.4608,-95.0513,27.22,88,100,5.14,US,05/07/2024
336,avon,41.4517,-82.0354,20.84,47,75,2.06,US,05/07/2024
337,misawa,40.6836,141.3597,9.22,87,94,3.59,JP,05/07/2024
338,xacmaz,41.4635,48.806,9.97,94,100,4.93,AZ,05/07/2024
339,fort mcmurray,56.7268,-111.381,9.77,93,100,4.63,CA,05/07/2024
340,masterton,-40.9597,175.6575,3.82,90,3,0.36,NZ,05/07/2024
341,la passe,45.5549,-0.8967,17.79,81,29,6.79,FR,05/07/2024
342,vitoria da conquista,-14.8661,-40.8394,24.92,59,10,5.94,BR,05/07/2024
343,tabou,4.423,-7.3528,29.85,70,56,2.49,CI,05/07/2024
344,brookings,44.3114,-96.7984,13.99,76,40,9.77,US,05/07/2024
345,ocumare del tuy,10.1165,-66.7761,32.83,51,54,1.57,VE,05/07/2024
346,eyl,7.9803,49.8164,30.16,69,61,5.2,SO,05/07/2024
347,manga,11.6636,-1.0731,38.35,25,82,4.76,BF,05/07/2024
348,sierra grande,-41.606,-65.3557,12.14,82,100,6.75,AR,05/07/2024
349,nemuro,43.3236,145.575,3.51,96,100,6.85,JP,05/07/2024
350,kristiansund,63.1115,7.732,10.03,93,75,6.17,NO,05/07/2024
351,colonia menno,-22.3667,-59.8167,32.7,43,0,10.91,PY,05/07/2024
352,pacific grove,36.6177,-121.9166,11.35,85,0,3.58,US,05/07/2024
353,ballina,-28.8667,153.5667,15.99,60,92,5.9,AU,05/07/2024
354,jayapura,-2.5333,140.7,25.66,92,100,3.65,ID,05/07/2024
355,usinsk,65.9939,57.5281,-1.07,78,100,9.83,RU,05/07/2024
356,porto novo,6.4965,2.6036,31.65,64,100,4.62,BJ,05/07/2024
357,puerto armuelles,8.2833,-82.8667,28.99,72,45,0.45,PA,05/07/2024
358,antalaha,-14.9003,50.2788,24.79,84,10,5.68,MG,05/07/2024
359,kiunga,-6.1219,141.2906,24.09,99,100,0.92,PG,05/07/2024
360,nagqu,31.5,92.0,2.76,63,100,1.43,CN,05/07/2024
361,trincomalee,8.5711,81.2335,30.61,73,9,2.64,LK,05/07/2024
362,takum,7.2667,9.9833,32.29,57,100,3.35,NG,05/07/2024
363,broken hill,-31.95,141.4333,13.32,59,0,5.36,AU,05/07/2024
364,idabel,33.8957,-94.8263,25.97,89,75,6.17,US,05/07/2024
365,midvagur,62.0511,-7.1939,10.46,71,75,5.66,FO,05/07/2024
366,hastings,50.8552,0.5729,20.11,71,0,4.28,GB,05/07/2024
367,umluj,25.0213,37.2685,26.82,47,0,6.31,SA,05/07/2024
368,quellon,-43.1167,-73.6167,5.9,87,100,4.13,CL,05/07/2024
369,tegueste,28.5167,-16.3167,22.82,68,0,4.12,ES,05/07/2024
370,birjand,32.8663,59.2211,29.26,12,0,4.12,IR,05/07/2024
371,trairi,-3.2778,-39.2689,30.44,66,56,4.56,BR,05/07/2024
372,hadibu,12.65,54.0333,30.34,71,14,1.64,YE,05/07/2024
373,cao bang,22.6667,106.25,24.31,94,100,0.78,VN,05/07/2024
374,monticello,45.3055,-93.7941,14.97,94,75,4.63,US,05/07/2024
375,al ghayzah,16.2079,52.176,30.97,71,23,7.82,YE,05/07/2024
376,tsiombe,-25.3,45.4833,23.05,79,0,5.54,MG,05/07/2024
377,labrador city,52.9463,-66.9114,3.99,64,75,5.36,CA,05/07/2024
378,mount gambier,-37.8333,140.7667,9.45,97,12,2.07,AU,05/07/2024
379,zhongshu,24.5167,103.7667,16.58,91,100,1.58,CN,05/07/2024
380,marsh harbour,26.5412,-77.0636,24.52,67,0,4.74,BS,05/07/2024
381,al fuwayliq,26.4432,43.2534,29.41,10,0,3.81,SA,05/07/2024
382,raub,3.7899,101.857,25.95,96,100,1.09,MY,05/07/2024
383,estevan,49.1334,-102.9842,10.19,93,100,8.75,CA,05/07/2024
384,pathein,16.7833,94.7333,28.74,77,99,4.41,MM,05/07/2024
385,copiapo,-27.3667,-70.3333,13.83,68,100,1.05,CL,05/07/2024
386,vila do maio,15.1333,-23.2167,32.44,73,1,6.54,CV,05/07/2024
387,geneina,13.45,22.45,39.03,6,12,4.85,SD,05/07/2024
388,callao,-12.0667,-77.15,23.73,88,100,2.06,PE,05/07/2024
389,egilsstadir,65.2653,-14.3948,10.95,46,40,8.23,IS,05/07/2024
390,raduzhny,62.0961,77.475,3.84,94,100,4.45,RU,05/07/2024
391,punta del este,-34.9667,-54.95,19.06,100,75,3.58,UY,05/07/2024
392,bouna,9.2667,-3.0,37.95,32,84,2.23,CI,05/07/2024
393,port macquarie,-31.4333,152.9167,13.83,71,68,1.75,AU,05/07/2024
394,byron,44.0327,-92.6455,14.12,94,0,4.63,US,05/07/2024
395,uturoa,-16.7333,-151.4333,27.76,77,34,7.72,PF,05/07/2024
396,as sulayyil,20.4607,45.5779,38.14,13,0,1.37,SA,05/07/2024
397,mancora,-4.1078,-81.0475,27.23,60,53,1.86,PE,05/07/2024
398,westport,41.1415,-73.3579,23.38,48,0,5.14,US,05/07/2024
399,tazacorte,28.629,-17.9293,22.54,64,20,4.12,ES,05/07/2024
400,astrakhan,46.3497,48.0408,19.93,28,0,4.0,RU,05/07/2024
401,les cayes,18.2,-73.75,29.48,66,0,4.36,HT,05/07/2024
402,guapore,-28.8456,-51.8903,24.84,60,19,2.89,BR,05/07/2024
403,puerto gaitan,4.3133,-72.0816,29.2,73,92,0.27,CO,05/07/2024
404,south hedland,-20.4089,118.5983,22.96,78,0,2.06,AU,05/07/2024
405,umba,66.6871,34.3429,-1.35,86,98,5.79,RU,05/07/2024
406,naryn,41.4287,75.9911,13.63,29,0,1.78,KG,05/07/2024
407,tazovsky,67.4667,78.7,-12.21,98,43,2.42,RU,05/07/2024
408,huarmey,-10.0681,-78.1522,21.61,81,91,4.31,PE,05/07/2024
409,ilheus,-14.7889,-39.0494,29.9,70,40,4.12,BR,05/07/2024
410,las brenas,-27.0897,-61.0816,23.84,49,100,6.25,AR,05/07/2024
411,jobabo,20.9692,-76.2994,29.01,66,17,3.32,CU,05/07/2024
412,orumiyeh,37.5527,45.0761,13.75,44,40,7.2,IR,05/07/2024
413,garissa,-0.4536,39.6401,31.03,50,87,8.06,KE,05/07/2024
414,arraial do cabo,-22.9661,-42.0278,29.98,48,0,6.17,BR,05/07/2024
415,lamu,-2.2717,40.902,26.7,83,100,6.74,KE,05/07/2024
416,labasa,-16.4167,179.3833,24.49,94,50,2.39,FJ,05/07/2024
417,jiuquan,39.7432,98.5174,19.94,16,1,2.48,CN,05/07/2024
418,lundazi,-12.2929,33.1782,22.73,52,1,4.03,ZM,05/07/2024
419,nyurba,63.2842,118.3319,0.96,86,50,5.49,RU,05/07/2024
420,barranca,-10.75,-77.7667,20.48,81,85,4.11,PE,05/07/2024
421,beaufort,5.3473,115.7455,24.49,97,24,1.23,MY,05/07/2024
422,dongning,44.0622,131.1207,6.42,55,0,1.78,CN,05/07/2024
423,san antonio de pale,-1.4014,5.6325,27.75,79,99,3.95,GQ,05/07/2024
424,madalena,41.2162,-8.3345,24.86,55,100,1.34,PT,05/07/2024
425,sawakin,19.1059,37.3321,29.24,48,0,5.38,SD,05/07/2024
426,nizhniy odes,63.6445,54.856,-0.76,92,93,3.55,RU,05/07/2024
427,sabzevar,36.2126,57.6819,28.6,26,40,8.23,IR,05/07/2024
428,ouargla,31.9493,5.325,37.04,10,0,5.14,DZ,05/07/2024
429,pionerskiy,54.9508,20.2275,11.19,66,0,7.21,RU,05/07/2024
430,saqqez,36.2499,46.2735,11.33,67,46,4.55,IR,05/07/2024
431,camaqua,-30.8511,-51.8122,28.33,62,100,2.74,BR,05/07/2024
432,carbonear,47.7332,-53.2148,8.91,89,100,2.34,CA,05/07/2024
433,winnipeg,49.8844,-97.147,16.04,49,75,10.29,CA,05/07/2024
434,yulinshi,38.2906,109.7494,20.65,20,0,2.64,CN,05/07/2024
435,el-tor,28.2364,33.6254,26.08,50,0,10.29,EG,05/07/2024
436,hagere hiywet,8.9833,37.85,23.13,53,74,3.91,ET,05/07/2024
437,stafford,52.8052,-2.1164,18.77,66,100,3.5,GB,05/07/2024
438,tahe,52.3333,124.7333,13.22,36,92,1.49,CN,05/07/2024
439,emerald,-23.5333,148.1667,19.43,79,0,4.15,AU,05/07/2024
440,ust-tsilma,65.441,52.1498,-1.88,95,100,3.13,RU,05/07/2024
441,mazagao,-0.115,-51.2894,28.03,99,100,1.58,BR,05/07/2024
442,dalbandin,28.8947,64.4101,34.69,12,0,1.6,PK,05/07/2024
443,richards bay,-28.783,32.0377,30.09,40,0,5.96,ZA,05/07/2024
444,opuwo,-18.0607,13.84,31.79,16,5,3.82,NA,05/07/2024
445,namtsy,62.7161,129.6658,5.01,80,100,5.38,RU,05/07/2024
446,villanueva,15.3167,-88.0,31.13,74,20,2.57,HN,05/07/2024
447,mogocha,53.7333,119.7667,12.61,48,100,1.39,RU,05/07/2024
448,hobyo,5.3505,48.5268,29.85,71,100,4.65,SO,05/07/2024
449,kuta,-8.7233,115.1723,27.97,88,20,5.36,ID,05/07/2024
450,sittwe,20.15,92.9,29.25,74,3,6.36,MM,05/07/2024
451,zhalantun,48.0,122.7167,14.32,30,76,2.77,CN,05/07/2024
452,chernyshevskiy,63.0128,112.4714,-1.7,83,96,5.42,RU,05/07/2024
453,salinas,36.6777,-121.6555,11.98,88,0,2.06,US,05/07/2024
454,berdigestyakh,62.0989,126.6992,2.82,89,95,4.03,RU,05/07/2024
455,jaunjelgava,56.6167,25.0833,8.82,44,8,6.16,LV,05/07/2024
456,alofi,-19.0595,-169.9187,24.94,100,75,5.66,NU,05/07/2024
457,nenjiang,49.1833,125.2167,15.71,25,46,4.96,CN,05/07/2024
458,nago,26.5881,127.9761,23.47,83,98,2.71,JP,05/07/2024
459,mogadishu,2.0371,45.3438,29.93,84,75,5.66,SO,05/07/2024
460,kashiwazaki,37.3667,138.55,14.93,93,100,3.02,JP,05/07/2024
461,xibing,26.9814,119.7247,19.69,92,81,0.26,CN,05/07/2024
462,colonia,50.9333,6.95,19.9,69,40,4.63,DE,05/07/2024
463,sinjai,-5.1241,120.253,24.31,94,86,1.94,ID,05/07/2024
464,paracuru,-3.41,-39.0306,30.06,67,61,5.14,BR,05/07/2024
465,cidade velha,14.9167,-23.6167,32.26,31,0,2.57,CV,05/07/2024
466,grand baie,-20.0182,57.5802,25.81,75,1,3.13,MU,05/07/2024
467,arkhangel'sk,64.5401,40.5433,2.06,55,40,3.0,RU,05/07/2024
468,castellarano,44.5131,10.7329,17.19,86,100,0.45,IT,05/07/2024
469,sahy,48.0741,18.9495,16.31,88,100,2.82,SK,05/07/2024
470,markovo,57.3206,107.0881,3.83,63,30,1.5,RU,05/07/2024
471,canto do buriti,-8.11,-42.9444,34.93,33,97,4.84,BR,05/07/2024
472,pemangkat,1.1667,108.9667,28.49,74,99,1.09,ID,05/07/2024
473,tsarevo,42.1667,27.85,26.09,62,56,0.21,BG,05/07/2024
474,kirakira,-10.4544,161.9205,26.52,88,100,2.68,SB,05/07/2024
475,sokcho,38.2083,128.5911,9.34,87,100,3.09,KR,05/07/2024
476,aioun,16.6614,-9.6149,43.51,4,0,6.76,MR,05/07/2024
477,kargil,34.5667,76.1,5.13,48,15,2.7,IN,05/07/2024
478,ilanskiy,56.2358,96.065,6.6,52,1,1.29,RU,05/07/2024
479,yen bai,21.7,104.8667,25.26,95,100,0.51,VN,05/07/2024
480,bandar-e anzali,37.4727,49.4622,17.06,80,71,1.79,IR,05/07/2024
481,nuuk,64.1835,-51.7216,-0.66,69,0,4.12,GL,05/07/2024
482,la ronge,55.1001,-105.2842,7.14,76,100,5.14,CA,05/07/2024
483,la palma,33.8464,-118.0467,18.06,80,0,1.54,US,05/07/2024
484,hilo,19.7297,-155.09,20.69,96,100,1.54,US,05/07/2024
485,witu,-2.3889,40.4382,26.16,85,99,5.15,KE,05/07/2024
486,zolochiv,49.806,24.8944,13.89,72,100,5.76,UA,05/07/2024
487,suratgarh,29.3167,73.9,37.4,11,0,2.96,IN,05/07/2024
488,kununurra,-15.7667,128.7333,22.99,73,68,0.0,AU,05/07/2024
489,nar'yan-mar,67.6713,53.087,-6.05,83,84,7.6,RU,05/07/2024
490,myitkyina,25.3833,97.4,27.33,45,100,0.18,MM,05/07/2024
491,tangalle,6.024,80.7911,29.09,83,100,4.68,LK,05/07/2024
492,yafran,32.0633,12.5286,30.02,16,100,6.1,LY,05/07/2024
493,al artawiyah,26.5053,45.3444,31.36,12,0,5.01,SA,05/07/2024
494,lethbridge,49.7,-112.8186,5.27,87,100,12.35,CA,05/07/2024
495,undurkhaan,47.3194,110.6556,19.5,20,8,3.58,MN,05/07/2024
496,callaway,30.153,-85.5699,28.88,75,40,4.12,US,05/07/2024
497,harper,4.375,-7.7169,30.37,67,66,2.32,LR,05/07/2024
498,fort st. john,56.2499,-120.8529,5.94,45,75,6.17,CA,05/07/2024
499,ulladulla,-35.35,150.4667,14.58,89,100,3.03,AU,05/07/2024
500,copala,16.65,-98.9833,28.5,58,7,1.9,MX,05/07/2024
501,ostseebad binz,54.3999,13.6105,12.19,79,100,6.71,DE,05/07/2024
502,tarrafal,15.2833,-23.7667,32.44,71,2,5.94,CV,05/07/2024
503,zhuanghe,39.7008,122.9911,15.22,50,74,2.54,CN,05/07/2024
504,fortuna,40.5982,-124.1573,7.51,98,0,0.0,US,05/07/2024
505,qamdo,31.1667,97.2333,6.23,62,98,2.5,CN,05/07/2024
506,horsham,51.064,-0.3272,21.38,51,0,3.09,GB,05/07/2024
507,tevriz,57.509,72.4042,9.56,71,8,4.4,RU,05/07/2024
508,yamada,39.4667,141.95,12.73,91,82,2.47,JP,05/07/2024
509,rezh,57.37,61.4043,5.91,69,98,1.6,RU,05/07/2024
510,tofol,5.3248,163.0078,28.1,83,99,6.93,FM,05/07/2024
511,pohrebyshche,49.4864,29.2636,16.97,63,78,6.95,UA,05/07/2024
512,hirado,33.3597,129.5531,15.77,85,9,4.32,JP,05/07/2024
513,afaahiti,-17.75,-149.2833,24.93,76,88,7.62,PF,05/07/2024
514,palmerston,-12.486,130.9833,25.99,80,0,0.51,AU,05/07/2024
515,moyynkum,44.2914,72.9469,23.75,31,100,3.07,KZ,05/07/2024
516,kushnarenkovo,55.105,55.3508,6.6,89,100,7.15,RU,05/07/2024
517,sao tome,0.3365,6.7273,31.02,74,40,5.66,ST,05/07/2024
518,talara,-4.5772,-81.2719,24.42,64,75,9.77,PE,05/07/2024
519,livingstonia,-10.606,34.1063,19.62,81,25,2.24,MW,05/07/2024
520,buta,2.7858,24.73,30.05,53,82,2.41,CD,05/07/2024
521,swakopmund,-22.6833,14.5333,22.47,79,27,4.02,NA,05/07/2024
522,east london,-33.0153,27.9116,35.52,20,0,3.6,ZA,05/07/2024
523,manadhoo,5.7667,73.3833,29.35,78,79,4.13,MV,05/07/2024
524,kuanda,56.3161,116.0806,7.62,83,100,2.97,RU,05/07/2024
525,san javier,37.8063,-0.8374,25.27,61,0,4.47,ES,05/07/2024
526,relizane,35.7373,0.556,26.87,35,0,5.81,DZ,05/07/2024
527,tocopilla,-22.092,-70.1979,19.79,67,27,2.95,CL,05/07/2024
528,korla,41.7597,86.1469,26.77,14,100,1.86,CN,05/07/2024
529,baruun-urt,46.6806,113.2792,17.73,22,6,3.76,MN,05/07/2024
530,al jawf,29.5,38.75,24.61,12,62,5.83,SA,05/07/2024
531,fort morgan,40.2503,-103.8,9.68,40,0,4.63,US,05/07/2024
532,ambodifotatra,-16.9833,49.85,26.4,76,6,10.3,MG,05/07/2024
533,nanning,22.8167,108.3167,26.25,78,100,1.91,CN,05/07/2024
534,kaihua,23.3687,104.28,17.77,93,97,2.64,CN,05/07/2024
535,uyar,55.81,94.3153,8.36,49,3,2.86,RU,05/07/2024
536,san roque,36.2107,-5.3842,19.49,77,20,5.81,ES,05/07/2024
537,inarajan village,13.2736,144.7484,28.08,89,100,5.72,GU,05/07/2024
538,mpanda,-6.3655,31.0409,23.32,80,98,1.68,TZ,05/07/2024
539,ulanhot,46.0833,122.0833,14.83,27,5,3.03,CN,05/07/2024
540,dwarka,22.2394,68.9678,28.56,79,0,6.32,IN,05/07/2024
541,argostolion,38.1811,20.489,21.04,73,20,4.63,GR,05/07/2024
542,el bolson,-41.9667,-71.5167,3.83,97,99,1.79,AR,05/07/2024
543,puerto baquerizo moreno,-0.9,-89.6,25.55,83,40,4.12,EC,05/07/2024
544,greenville,35.6127,-77.3663,23.41,85,75,3.09,US,05/07/2024
545,magong,23.5654,119.5863,24.33,84,54,7.52,TW,05/07/2024
546,anloga,5.7947,0.8973,30.25,71,90,6.16,GH,05/07/2024
547,lorengau,-2.0226,147.2712,26.73,88,100,3.14,PG,05/07/2024
548,mahina,-17.5065,-149.489,25.87,78,20,1.54,PF,05/07/2024
549,sinabang,2.4803,96.3801,26.91,82,96,1.11,ID,05/07/2024
550,calca,-13.3333,-71.95,15.64,64,100,1.86,PE,05/07/2024
551,ammi moussa,35.8678,1.1114,24.84,33,0,5.93,DZ,05/07/2024
552,odacho-oda,35.1833,132.5,13.43,86,100,5.74,JP,05/07/2024
553,bubaque,11.2833,-15.8333,26.36,70,11,3.83,GW,05/07/2024
554,grand falls-windsor,48.9332,-55.6649,10.84,77,100,0.45,CA,05/07/2024
555,roosevelt,33.9668,-103.4505,16.12,10,1,6.9,US,05/07/2024
556,salalah,17.0151,54.0924,31.05,79,40,6.17,OM,05/07/2024
557,maceio,-9.6658,-35.7353,24.69,100,75,3.09,BR,05/07/2024
558,kayangel,8.0823,134.7173,28.12,75,68,2.98,PW,05/07/2024
559,francisco i. madero,29.7059,-107.8043,16.21,24,32,5.55,MX,05/07/2024
560,yuzhno-kurilsk,44.0306,145.8556,5.76,99,100,2.9,RU,05/07/2024
561,vorkuta,67.5,64.0,-6.05,80,71,4.02,RU,05/07/2024
562,nouadhibou,20.931,-17.0347,23.99,60,0,8.75,MR,05/07/2024
563,black point,-34.6187,137.8972,15.94,76,0,4.31,AU,05/07/2024
564,barra do corda,-5.5,-45.25,30.72,52,9,3.61,BR,05/07/2024
